~VERSION	INFORMATION												
	VERS.	2	:	CWLS	LOG	ASCII	STANDARD	-	VERSION	2			
	WRAP.	NO	:	ONE	LINE	PER	DEPTH	STEP					
#													
~Well	Information	Section											
#MNEM	.UNIT	DATA	DESCRIPTION										
#-----	-----	--------	--------------										
	STRT	.M	410	:	START	DEPTH							
	STOP	.M	2720	:	END	DEPTH							
	STEP	.M	0.15	:	INCREMENT	DEPTH							
	NULL	.	-999.25	:	NULL	VALUE							
	COMP	.	:										
	WELL	.	XXXX	:	WELL	NAME							
	EKB	.M	0	:	KELLY	BUSHING	ELEVATION						
	EGL	.M	0	:	GROUND	LEVEL	ELEVATION						
	FLD	.	:										
	LOC	.	X	=	0	Y	=	0.0000:	WELL	LOCATION			
	PROV	.	:										
	SRVC	.	:										
	PROV	.	:										
	DATE	.	:										
	UWI	.	Unknown	:	UNIQUE	WELL	ID						
	API	.	:										
#													
~Curve	Information	Section											
#MNEM	.UNIT	Curve	#DESCRIPTION										
#-----	-----	----	--------------										
	DEPTH	.M	:	1	Name	=	Domain	Curve	-	Type	=	DEPTH	
	CALI	.mm	:	2	Name	=	Caliper_1	-	Type	=	Caliper		
	RHOB	.g/cc	:	3	Name	=	Density_3	-	Type	=	Density		
	UNKNOWN	.ft	:	4	Name	=	Depth_TVD	-	Type	=	Depth		
	GR	.API	:	5	Name	=	Gamma	Ray_1	-	Type	=	Gamma	Ray
	NPHI	.v/v	:	6	Name	=	Neutron	Porosity_1	-	Type	=	Neutron	Porosity
	DT	.us/m	:	7	Name	=	P-wave_1	-	Type	=	P-wave		
	UNKNOWN	.b/e	:	8	Name	=	Photoelectric_1	-	Type	=	Photoelectric		
	RES	.ohm-ft	:	9	Name	=	Resistivity	-	Type	=	Resistivity		
	RES	.ohm-m	:	10	Name	=	Resistivity_1	-	Type	=	Resistivity		
	SDT	.us/m	:	11	Name	=	S-wave_1	-	Type	=	S-wave		
~A	(ASCII	LOG	DATA)										
# ...
	1387.25	313.0721	2.5386	1337.691	96.1574	0.2319	313.7375	3.2242	2.9663	3.0445	630.358		
	1387.4	314.002	2.5529	1337.8408	90.7695	0.2238	314.325	3.2442	2.9638	3.0296	640.1446		
	1387.55	314.5271	2.5614	1337.9908	87.2672	0.2265	316.2178	3.1714	2.9973	3.0344	642.374		
	1387.7	313.7995	2.5599	1338.1407	86.0508	0.2367	317.2406	3.1237	3.0597	3.0929	636.7833		
	1387.8501	312.8806	2.5528	1338.2908	86.7939	0.2477	312.7761	3.2049	3.1161	3.1469	631.8255		
	1388	312.4583	2.5409	1338.4407	89.8005	0.255	309.9935	3.3902	3.1576	3.1782	626.5709		
	1388.15	312.2275	2.5227	1338.5907	92.9727	0.2632	309.7462	3.509	3.1665	3.1491	618.8129		
	1388.3	312.2036	2.4976	1338.7406	94.2496	0.3002	309.1651	3.4311	3.1642	3.0097	613.7763		
	1388.45	312.6259	2.4427	1338.8906	96.9748	0.4014	308.4871	3.2308	3.225	2.8906	616.9083		
	1388.6001	313.2968	2.2702	1339.0406	98.224	0.4802	308.6213	2.9416	3.5176	2.8449	612.7988		
	1388.75	313.7799	1.9239	1339.1898	94.9821	0.4623	310.652	2.408	4.353	3.2924	597.0292		
	1388.9	313.3619	1.5486	1339.3394	76.1374	0.4072	322.3613	1.5987	5.7067	4.4901	609.6577		
	1389.05	311.3114	1.3184	1339.4893	48.3048	0.4033	338.6791	0.8175	7.8578	7.5767	649.2836		
	1389.2	308.3962	1.2466	1339.6393	25.1781	0.5095	355.2489	0.4055	10.6626	12.792	688.9257		
	1389.3501	306.8897	1.2396	1339.7892	13.639	0.827	375.5775	0.3146	12.2164	20.07	752.2125		
	1389.5	307.9667	1.2369	1339.9392	10.1841	1.1936	399.8919	0.3416	13.5747	27.7214	840.6774		
	1389.65	310.4908	1.2332	1340.089	8.0629	1.3086	425.5815	0.4058	17.8553	36.056	978.6876		
	1389.8	311.9922	1.2278	1340.239	8.5493	1.2782	444.8157	0.4644	20.663	47.8146	1102.4338		
	1389.95	310.6399	1.2216	1340.3889	9.5423	1.2812	455.8107	0.4798	20.7762	60.2528	1129.8766		
	1390.1001	307.6346	1.2181	1340.5389	7.9854	1.2257	459.826	0.4289	22.9386	67.4318	1157.3141		
	1390.25	305.5038	1.2212	1340.6888	6.0338	1.0937	459.1209	0.3371	24.8902	69.022	1220.2675		
	1390.4	304.9508	1.2295	1340.8389	6.4904	1.0099	457.0986	0.2693	24.4792	65.692	1339.1077		
	1390.55	306.2495	1.2325	1340.9889	7.6609	0.9999	455.1766	0.2879	21.8633	53.9955	1435.3171		
	1390.7	309.4605	1.2258	1341.1388	7.7761	0.9796	455.1591	0.3731	17.8857	39.3872	1463.0631		
	1390.8501	312.2634	1.2191	1341.2888	8.3105	0.9368	456.2882	0.4485	14.663	29.1253	1437.8878		
	1391	312.1189	1.2188	1341.4387	8.0637	0.9796	457.6125	0.5047	12.4431	22.2286	1412.7485		
	1391.15	310.0706	1.2248	1341.5887	9.4275	1.1447	459.1371	0.5349	10.3174	17.0781	1387.5868		
	1391.3	308.7077	1.233	1341.7386	14.7042	1.285	459.2059	0.5377	8.3402	11.7318	1357.6411		
	1391.45	311.2401	1.237	1341.8885	27.1721	1.2673	457.9087	0.5412	6.2556	6.7676	1314.9581		
	1391.6001	317.8536	1.2382	1342.0382	56.3602	1.1348	454.7674	0.5421	4.2437	3.6242	1272.2661		
	1391.75	322.3104	1.2614	1342.1881	86.9843	0.9764	448.9774	0.5217	3.2103	2.3193	1228.8895		
	1391.9	322.9046	1.3726	1342.3381	107.2885	0.8589	439.3775	0.5608	2.5405	1.9045	1183.1378		
	1392.05	320.7839	1.6197	1342.4882	113.0685	0.7453	424.1396	0.8707	2.2544	2.0132	1137.4156		
	1392.2	318.2815	1.9576	1342.635	107.6591	0.5952	409.4628	1.5999	2.2485	2.4685	1085.2374		
	1392.3501	316.9809	2.2301	1342.774	98.1057	0.4913	400.1618	2.4967	2.2987	2.6392	1005.0911		
	1392.5	316.3919	2.3194	1342.9241	96.9831	0.5137	398.3131	3.1457	2.1741	2.1656	936.4908		
	1392.65	315.9422	2.2104	1343.0739	107.7554	0.6753	399.179	3.281	1.9272	1.6231	888.882		
	1392.8	315.4741	2.0546	1343.224	116.9598	0.831	402.3185	3.0412	1.7369	1.4578	977.8304		
	1392.95	314.9505	2.0259	1343.3738	128.6572	0.7137	406.3247	2.6614	1.6734	1.4253	1009.812		
	1393.1001	314.796	2.1837	1343.5239	134.4122	0.5447	409.4006	2.5052	1.7007	1.5391	1041.8658		
	1393.25	315.1841	2.3396	1343.6737	126.6202	0.4925	410.1136	2.8728	1.8181	1.828	1070.3812		
	1393.4	315.6559	2.3761	1343.8239	108.9215	0.501	410.8044	3.2525	1.9009	1.8492	1044.5862		
	1393.55	315.9427	2.34	1343.9736	99.3853	0.5392	408.9786	3.3983	1.9494	1.9293	978.56		
	1393.7	316.0486	2.2743	1344.1235	99.8385	0.571	405.0988	3.4188	1.9828	1.9796	898.5919		
	1393.8501	316.1423	2.2144	1344.2737	104.1182	0.5315	397.771	3.3024	2.0132	2.0348	919.9124		
	1394	316.6794	2.2326	1344.4235	104.9916	0.4524	383.767	3.0501	1.9983	1.9524	891.6495		
	1394.15	317.3354	2.3603	1344.5735	97.5607	0.4012	370.4259	2.8671	2.0522	1.8299	863.8237		
	1394.3	317.561	2.4781	1344.7255	86.7727	0.3721	364.4771	3.024	2.2633	1.9712	801.3199		
	1394.45	317.596	2.4889	1344.876	84.862	0.354	357.8331	3.2598	2.6354	2.6015	813.0746		
	1394.6001	317.7099	2.4956	1345.0258	85.3691	0.33	345.9316	3.2582	2.947	3.0957	791.9586		
	1394.75	317.444	2.5455	1345.1759	81.2941	0.2955	339.735	3.2217	3.1209	3.282	755.7943		
	1394.9	316.2723	2.5819	1345.3258	81.9601	0.2607	332.0703	3.2912	3.2087	3.5157	723.6154		
	1395.05	314.4463	2.5692	1345.4757	81.7776	0.2376	321.463	3.2427	3.3246	3.5648	697.472		
	1395.2	313.4586	2.5619	1345.6257	81.2931	0.2308	310.5398	3.0824	3.4429	3.6015	640.3826		
	1395.3501	313.8134	2.5762	1345.7756	81.6621	0.2341	305.1702	3.1197	3.6091	3.7525	587.9358		
	1395.5	314.2635	2.5758	1345.9258	78.1209	0.2392	302.6753	3.3301	3.7007	3.8123	568.2781		
	1395.65	314.357	2.5581	1346.0754	76.0544	0.243	292.8603	3.4048	3.7763	3.8439	562.8264		
	1395.8	314.2625	2.5474	1346.214	74.3325	0.2408	289.1441	3.2499	3.8266	3.8423	559.7198		
	1395.95	314.1094	2.5466	1346.3618	71.9431	0.2325	289.7882	3.0763	3.8842	3.68	558.6667		
	1396.1001	314.0688	2.5483	1346.5117	64.1206	0.2252	292.9904	2.9517	4.0277	4.0867	559.7046		
	1396.25	314.1527	2.547	1346.6617	62.6351	0.2272	299.6783	2.9131	4.3052	4.9206	549.3411		
	1396.4	314.1514	2.5275	1346.8118	69.087	0.2356	307.4465	2.9394	4.3936	5.2566	545.1144		
	1396.55	313.8035	2.4777	1346.9618	74.2429	0.234	312.7776	2.9586	4.2436	4.8361	550.4518		
	1396.7	313.0755	2.4101	1347.1116	78.8026	0.2168	315.5345	2.9203	4.0839	4.2978	561.0962		
	1396.8501	312.5526	2.3661	1347.2616	75.521	0.1989	315.3376	2.8137	3.9946	3.992	568.1246		
	1397	312.6503	2.3883	1347.4115	74.3903	0.1955	311.2589	2.6902	3.9929	3.9454	572.1454		
	1397.15	313.1078	2.4501	1347.5615	73.0808	0.2049	304.9384	2.6515	4.0258	4.0067	573.8279		
	1397.3	313.5545	2.4914	1347.7114	73.7377	0.2181	298.2054	2.7364	4.0627	4.0619	566.2715		
	1397.45	313.8179	2.5039	1347.8615	74.7561	0.2273	295.1141	2.8783	4.109	4.134	552.3117		
	1397.6001	313.8831	2.5015	1348.0114	71.0356	0.2287	296.2121	2.9775	4.1325	4.2412	542.7205		
	1397.75	313.8298	2.4965	1348.1614	68.7407	0.227	300.0609	2.997	4.0909	4.2364	537.6739		
	1397.9	313.7395	2.4875	1348.3113	74.706	0.2291	303.9029	2.9715	3.9966	4.0547	539.7039		
	1398.05	313.5863	2.4693	1348.4613	80.5576	0.2319	306.3498	2.9599	3.9327	3.7987	550.3244		
	1398.2	313.395	2.4517	1348.6112	81.0127	0.2268	308.3086	2.9898	4.0156	3.7907	563.5689		
	1398.3501	313.3778	2.4535	1348.7612	71.8307	0.2187	309.9287	2.9921	4.1835	4.0722	573.0752		
	1398.5	313.5994	2.4749	1348.9113	62.7109	0.2228	310.8006	2.8839	4.3041	4.3948	575.678		
	1398.65	313.7533	2.4937	1349.061	62.2412	0.2367	311.6383	2.7479	4.324	4.4966	574.4633		
	1398.8	313.6067	2.4906	1349.2111	65.7536	0.2434	312.6223	2.6894	4.2934	4.3756	571.9746		
	1398.95	313.2517	2.4633	1349.361	66.905	0.2363	313.3822	2.6693	4.2996	4.2621	568.7243		
	1399.1001	312.894	2.4321	1349.511	65.4329	0.2253	313.4477	2.6876	4.3678	4.3301	567.9599		
	1399.25	312.6409	2.4197	1349.6609	65.8106	0.2226	312.3923	2.7942	4.4283	4.4731	567.0109		
	1399.4	312.6219	2.4285	1349.8109	66.3275	0.2282	310.8587	2.9203	4.4637	4.5876	563.9005		
	1399.55	312.946	2.4445	1349.9608	62.9834	0.2311	308.765	2.9848	4.5895	4.7664	563.4611		
	1399.7	313.2711	2.4494	1350.1108	59.3872	0.2226	306.1492	3.0031	4.7354	4.9493	562.9297		
	1399.8501	313.1792	2.4424	1350.2607	58.9698	0.2086	304.1117	2.9818	4.7628	5.0055	558.6475		
	1400	312.9355	2.4392	1350.4108	58.6765	0.2011	303.2839	2.9125	4.7395	4.9071	553.5909		
	1400.15	313.0571	2.4448	1350.5608	59.4102	0.202	303.7346	2.8626	4.6957	4.7682	550.3513		
	1400.3	313.4623	2.4458	1350.7107	61.597	0.2052	304.0164	2.8685	4.6716	4.6872	549.08		
	1400.45	313.7707	2.4353	1350.8606	59.8339	0.2072	304.7992	2.8932	4.6632	4.5639	547.605		
