~VERSION	INFORMATION												
	VERS.	2	:	CWLS	LOG	ASCII	STANDARD	-	VERSION	2			
	WRAP.	NO	:	ONE	LINE	PER	DEPTH	STEP					
#													
~Well	Information	Section											
#MNEM	.UNIT	DATA	DESCRIPTION										
#-----	-----	--------	--------------										
	STRT	.M	410	:	START	DEPTH							
	STOP	.M	2720	:	END	DEPTH							
	STEP	.M	0.15	:	INCREMENT	DEPTH							
	NULL	.	-999.25	:	NULL	VALUE							
	COMP	.	:										
	WELL	.	XXXX	:	WELL	NAME							
	EKB	.M	0	:	KELLY	BUSHING	ELEVATION						
	EGL	.M	0	:	GROUND	LEVEL	ELEVATION						
	FLD	.	:										
	LOC	.	X	=	0	Y	=	0.0000:	WELL	LOCATION			
	PROV	.	:										
	SRVC	.	:										
	PROV	.	:										
	DATE	.	:										
	UWI	.	Unknown	:	UNIQUE	WELL	ID						
	API	.	:										
#													
~Curve	Information	Section											
#MNEM	.UNIT	Curve	#DESCRIPTION										
#-----	-----	----	--------------										
	DEPTH	.M	:	1	Name	=	Domain	Curve	-	Type	=	DEPTH	
	CALI	.mm	:	2	Name	=	Caliper_1	-	Type	=	Caliper		
	RHOB	.g/cc	:	3	Name	=	Density_3	-	Type	=	Density		
	UNKNOWN	.ft	:	4	Name	=	Depth_TVD	-	Type	=	Depth		
	GR	.API	:	5	Name	=	Gamma	Ray_1	-	Type	=	Gamma	Ray
	NPHI	.v/v	:	6	Name	=	Neutron	Porosity_1	-	Type	=	Neutron	Porosity
	DT	.us/m	:	7	Name	=	P-wave_1	-	Type	=	P-wave		
	UNKNOWN	.b/e	:	8	Name	=	Photoelectric_1	-	Type	=	Photoelectric		
	RES	.ohm-ft	:	9	Name	=	Resistivity	-	Type	=	Resistivity		
	RES	.ohm-m	:	10	Name	=	Resistivity_1	-	Type	=	Resistivity		
	SDT	.us/m	:	11	Name	=	S-wave_1	-	Type	=	S-wave		
~A	(ASCII	LOG	DATA)										
# ...
	805.4	313.935	2.1042	779.2621	38.306	0.4533	421.4036	2.1683	1.4987	1.3866	1336.6395		
	805.55	313.5268	1.995	779.4122	50.5919	0.5695	407.4229	2.1065	1.6071	1.4425	1300.4408		
	805.7	311.587	1.7749	779.5621	54.2101	0.7382	397.737	1.7318	1.7875	1.6168	1206.4438		
	805.85	309.4103	1.5418	779.7066	42.8761	0.8653	391.5527	1.0851	2.0707	2.0922	1097.0691		
	806	307.9005	1.4846	779.8286	36.2707	0.7848	383.6896	0.5639	2.3464	2.9781	1032.3658		
	806.15	306.1041	1.6637	779.9703	46.2101	0.6221	378.5648	0.5525	2.3735	2.927	978.9725		
	806.3	303.7448	1.9533	780.1203	64.1674	0.4867	375.6113	1.0954	1.9587	2.0139	928.1137		
	806.45	302.3662	2.1971	780.2704	76.4455	0.3975	375.2612	1.7816	1.7474	1.6768	907.9559		
	806.6	302.4076	2.3163	780.4058	78.0842	0.3553	377.403	2.216	1.7939	1.7018	910.9758		
	806.75	303.0595	2.3653	780.5258	77.9821	0.344	376.9789	2.4509	1.8458	1.7597	919.7794		
	806.9	304.3202	2.3924	780.6648	79.5336	0.3436	376.7538	2.5808	1.8511	1.8278	937.1077		
	807.05	305.8755	2.4207	780.8148	78.8218	0.3402	378.5202	2.6577	1.8837	1.9306	967.2877		
	807.2	306.5164	2.4521	780.9647	74.8252	0.332	378.3464	2.8592	1.9428	2.0435	1007.3208		
	807.35	306.3632	2.4562	781.1017	68.9779	0.3262	376.6321	3.2073	1.9672	2.0761	1048.1906		
	807.5	307.0528	2.4216	781.2229	67.8838	0.3293	374.5659	3.3208	1.9662	1.976	1065.556		
	807.65	308.7258	2.3855	781.3591	72.1198	0.3371	373.6665	3.0317	1.9306	1.8991	1065.8331		
	807.8	309.4109	2.3798	781.5091	74.6834	0.3448	373.1139	2.6339	1.8992	1.8963	1063.1		
	807.95	308.2514	2.3909	781.6591	73.196	0.353	372.193	2.4049	1.8981	1.9265	1051.3646		
	808.1	306.7084	2.3985	781.7978	74.2251	0.3582	371.4915	2.3643	1.9082	1.9607	1028.5558		
	808.25	306.3849	2.4083	781.9201	75.7241	0.3503	371.6083	2.4849	1.9134	1.9582	1003.8763		
	808.4	307.0177	2.426	782.0536	73.4394	0.331	372.316	2.7112	1.9062	1.935	985.0685		
	808.55	307.7938	2.4411	782.7274	71.6913	0.3175	373.3712	2.9441	1.8963	1.9228	975.0501		
	808.7	308.9852	2.4439	783.3479	72.7889	0.3189	375.6293	3.1271	1.8911	1.9238	973.7553		
	808.85	310.8599	2.4389	783.3479	75.1558	0.3241	379.0613	3.2015	1.8925	1.9306	982.3104		
	809	312.3921	2.4354	783.3479	76.5835	0.3225	382.0004	3.1512	1.9067	1.9536	1007.8548		
	809.15	312.3057	2.4333	783.3479	74.9583	0.3156	383.4531	3.0598	1.923	1.9921	1045.9027		
	809.3	311.114	2.4271	783.3479	75.3838	0.3082	387.4832	3.0025	1.9311	2.0202	1087.5529		
	809.45	310.2949	2.4184	783.3479	80.1232	0.3077	392.4073	2.9677	1.9351	2.0224	1115.2589		
	809.6	310.0049	2.4085	783.3479	81.0345	0.3185	392.5997	2.8779	1.9293	1.9984	1078.3508		
	809.75	309.9864	2.3968	783.4031	78.177	0.3312	390.109	2.7069	1.9181	1.9764	1009.157		
	809.9	310.8251	2.3904	783.5435	75.3826	0.3335	386.8121	2.5691	1.9032	1.9398	1000.8381		
	810.05	312.1572	2.3942	783.6639	77.8085	0.3288	383.6348	2.5622	1.884	1.9095	970.5104		
	810.2	312.9342	2.3998	783.7798	79.0291	0.3272	380.3561	2.6191	1.872	1.897	938.4665		
	810.35	312.917	2.4012	783.906	79.2877	0.3309	377.7133	2.6606	1.8734	1.9076	922.3981		
	810.5	312.729	2.4034	784.056	81.5218	0.3375	378.6038	2.7039	1.8792	1.9192	933.1443		
	810.65	313.1013	2.4113	784.2059	81.0374	0.3411	378.4257	2.7935	1.8921	1.9382	944.9985		
	810.8	313.8676	2.4239	784.3508	77.2225	0.342	377.3316	2.9074	1.9077	1.9805	928.1056		
	810.95	314.2168	2.4333	784.4771	76.9387	0.3453	380.448	2.9933	1.9145	2.0203	932.1237		
	811.1	314.3284	2.4309	784.6005	70.24	0.3521	383.9863	3.0309	1.9111	2.0327	937.9576		
	811.25	314.4433	2.4189	784.7505	70.6597	0.356	391.1149	3.0024	1.8986	2.0246	941.3784		
	811.4	314.2829	2.4064	784.9005	74.0418	0.3425	410.7119	2.9201	1.8712	1.9832	962.3936		
	811.55	313.4183	2.3967	785.0505	77.3337	0.3131	416.8902	2.8867	1.8511	1.9197	973.7676		
	811.7	311.6431	2.3897	785.2004	79.2364	0.3057	425.12	2.9449	1.859	1.9148	1025.4342		
	811.85	308.8362	2.3822	785.3503	80.8129	0.323	440.9993	2.978	1.8761	1.9515	1055.085		
	812	307.0793	2.3744	785.4995	80.2892	0.3539	463.7093	2.9208	1.8816	1.9603	1034.3616		
	812.15	308.6941	2.3673	785.6396	82.0559	0.3735	475.0318	2.8007	1.8719	1.9302	1167.97		
	812.3	312.1137	2.3665	785.7587	80.3761	0.3675	484.2682	2.731	1.853	1.8964	1243.7007		
	812.45	313.814	2.374	785.9086	78.5167	0.3642	490.4045	2.7821	1.8434	1.8482	1306.6532		
	812.6	313.3177	2.3665	786.0585	78.2286	0.396	483.3554	2.8577	1.8281	1.8148	1356.4363		
	812.75	311.9364	2.2936	786.2076	79.0211	0.5092	481.451	2.7752	1.8094	1.7203	1414.0709		
	812.9	310.7324	2.1358	786.3368	85.4137	0.7256	476.498	2.5339	1.7964	1.6013	1412.1256		
	813.05	309.1092	1.8847	786.4531	80.3287	0.9372	470.8417	2.0279	1.8672	1.7278	1469.8605		
	813.2	307.1724	1.672	786.6038	66.8455	0.9021	466.1712	1.3667	2.3281	2.4317	1434.1365		
	813.35	307.3947	1.6417	786.7554	58.247	0.8272	463.0401	0.9756	2.7515	2.989	1470.2373		
	813.5	308.5814	1.694	786.9053	61.8111	0.7926	464.1991	1.0009	2.4854	2.6236	1410.5259		
	813.65	308.1038	1.6835	787.0353	67.6514	0.8307	468.1222	1.1549	2.3963	2.4017	1392.5332		
	813.8	307.0791	1.579	787.1517	70.5785	0.9897	470.7533	1.1192	2.4427	2.2555	1394.8296		
	813.95	306.857	1.4446	787.2999	58.6199	1.0943	476.3105	0.8512	2.4946	2.6241	1337.7008		
	814.1	306.9074	1.4169	787.4498	42.9233	0.9246	476.018	0.5912	2.7743	3.5877	1263.0028		
	814.25	307.0548	1.5879	787.5997	34.0554	0.672	474.849	0.72	3.0476	4.1732	1282.8202		
	814.4	308.0507	1.8372	787.7314	47.7838	0.5432	470.902	1.2375	2.9602	3.3245	1311.905		
	814.55	309.1981	1.9998	787.8489	69.5051	0.5271	463.7025	1.81	2.5095	2.357	1306.0723		
	814.7	309.0775	2.0572	787.9943	81.9586	0.5838	449.4104	2.2939	2.1061	1.8422	1290.6119		
	814.85	308.3739	2.0572	788.1442	83.9647	0.6613	431.5358	2.6483	1.8743	1.6284	1253.8972		
	815	308.7536	2.0531	788.2941	87.7871	0.6808	405.0877	2.8706	1.7711	1.613	1180.4535		
	815.15	310.0899	2.0566	788.4441	94.9036	0.6363	379.9337	2.9322	1.7544	1.66	1038.0905		
	815.3	311.3039	2.0619	788.5941	101.5772	0.5671	363.4098	2.9717	1.7495	1.6488	924.181		
	815.45	312.1622	2.0912	788.7441	102.8012	0.4919	360.5401	3.0432	1.7106	1.5354	859.1963		
	815.6	312.8556	2.185	788.8888	97.4429	0.4132	367.2543	3.0981	1.7017	1.5784	838.2515		
	815.75	313.4177	2.3073	789.0115	91.2967	0.3445	376.2678	3.0974	1.7481	1.6918	845.4093		
	815.9	313.5965	2.389	789.1524	86.6626	0.3044	383.6192	3.0246	1.7976	1.8332	905.4924		
	816.05	313.5089	2.4168	789.3025	84.0529	0.2891	396.3044	2.9321	1.8809	1.9839	986.265		
	816.2	313.4051	2.4199	789.4525	83.7905	0.2873	402.4652	2.841	1.955	2.0673	1054.4475		
	816.35	313.3656	2.4167	789.5884	81.6891	0.296	398.3936	2.7223	2.0239	2.1802	1125.6097		
	816.5	313.3883	2.4067	789.7087	79.6001	0.3206	388.6474	2.6144	2.0685	2.2767	1142.4565		
	816.65	313.4928	2.3918	789.8469	82.649	0.3524	377.6704	2.5907	2.0304	2.2457	1085.1061		
	816.8	313.6048	2.3796	789.9968	88.005	0.3726	369.495	2.6915	1.9003	1.9589	984.0438		
	816.95	313.5347	2.3792	790.1468	89.5647	0.3829	364.6823	2.8846	1.7608	1.6493	924.8981		
	817.1	313.261	2.399	790.2844	93.3521	0.4021	363.4076	3.1457	1.6771	1.5081	897.5193		
	817.25	313.1916	2.4308	790.406	95.3868	0.433	367.2502	3.4653	1.6696	1.4602	885.9351		
	817.4	313.7875	2.4483	790.5413	91.1087	0.4403	379.9902	3.6943	1.7468	1.5376	896.7863		
	817.55	314.7398	2.4461	790.6913	86.1599	0.4105	396.1736	3.6625	1.8599	1.7407	902.9972		
	817.7	315.3011	2.4455	790.8412	82.0836	0.3735	407.8822	3.3915	2.0072	2.0368	908.0686		
	817.85	314.8072	2.4599	790.9912	80.3568	0.3419	409.531	3.1466	2.123	2.252	925.0131		
	818	313.2644	2.466	791.1412	81.8009	0.3168	405.7729	3.1154	2.1499	2.2496	935.0154		
	818.15	311.2133	2.4429	791.2912	82.9231	0.3082	401.4664	3.0756	2.1383	2.1624	914.8572		
	818.3	309.3512	2.4098	791.4379	82.4163	0.3211	405.4348	2.8403	2.1552	2.117	872.9387		
	818.45	308.3462	2.3904	791.5686	78.072	0.3368	399.0128	2.615	2.2169	2.1879	821.7938		
	818.6	308.1644	2.3803	791.6995	73.144	0.3313	372.0929	2.5843	2.2715	2.3398	774.7044		
	818.75	308.5608	2.3602	791.8495	73.6466	0.3134	371.109	2.6532	2.285	2.4048	764.2083		
	818.9	309.4461	2.3302	791.9995	74.7241	0.302	375.55	2.6488	2.2824	2.3597	796.8636		
	819.05	310.6996	2.3152	792.1414	71.2851	0.3061	384.3994	2.5556	2.3049	2.386	861.9282		
