~VERSION	INFORMATION												
	VERS.	2	:	CWLS	LOG	ASCII	STANDARD	-	VERSION	2			
	WRAP.	NO	:	ONE	LINE	PER	DEPTH	STEP					
#													
~Well	Information	Section											
#MNEM	.UNIT	DATA	DESCRIPTION										
#-----	-----	--------	--------------										
	STRT	.M	410	:	START	DEPTH							
	STOP	.M	2720	:	END	DEPTH							
	STEP	.M	0.15	:	INCREMENT	DEPTH							
	NULL	.	-999.25	:	NULL	VALUE							
	COMP	.	:										
	WELL	.	XXXX	:	WELL	NAME							
	EKB	.M	0	:	KELLY	BUSHING	ELEVATION						
	EGL	.M	0	:	GROUND	LEVEL	ELEVATION						
	FLD	.	:										
	LOC	.	X	=	0	Y	=	0.0000:	WELL	LOCATION			
	PROV	.	:										
	SRVC	.	:										
	PROV	.	:										
	DATE	.	:										
	UWI	.	Unknown	:	UNIQUE	WELL	ID						
	API	.	:										
#													
~Curve	Information	Section											
#MNEM	.UNIT	Curve	#DESCRIPTION										
#-----	-----	----	--------------										
	DEPTH	.M	:	1	Name	=	Domain	Curve	-	Type	=	DEPTH	
	CALI	.mm	:	2	Name	=	Caliper_1	-	Type	=	Caliper		
	RHOB	.g/cc	:	3	Name	=	Density_3	-	Type	=	Density		
	UNKNOWN	.ft	:	4	Name	=	Depth_TVD	-	Type	=	Depth		
	GR	.API	:	5	Name	=	Gamma	Ray_1	-	Type	=	Gamma	Ray
	NPHI	.v/v	:	6	Name	=	Neutron	Porosity_1	-	Type	=	Neutron	Porosity
	DT	.us/m	:	7	Name	=	P-wave_1	-	Type	=	P-wave		
	UNKNOWN	.b/e	:	8	Name	=	Photoelectric_1	-	Type	=	Photoelectric		
	RES	.ohm-ft	:	9	Name	=	Resistivity	-	Type	=	Resistivity		
	RES	.ohm-m	:	10	Name	=	Resistivity_1	-	Type	=	Resistivity		
	SDT	.us/m	:	11	Name	=	S-wave_1	-	Type	=	S-wave		
~A	(ASCII	LOG	DATA)										
# ...
	1533.8	310.9097	2.4868	1484.1527	97.7322	0.4246	335.3781	3.2165	2.1403	2.2283	640.9011		
	1533.9501	311.7302	2.456	1484.3027	97.8466	0.4301	356.1733	3.3276	2.1641	2.2301	668.3998		
	1534.1001	312.1319	2.4185	1484.4526	107.3277	0.4572	365.3162	3.4639	2.142	2.1392	712.7446		
	1534.25	310.6375	2.3928	1484.6027	123.1245	0.4915	372.8762	3.5135	2.0901	1.9765	751.6385		
	1534.4	308.3256	2.3742	1484.7527	132.7837	0.5275	380.468	3.4991	2.0472	1.8657	777.4785		
	1534.55	307.5944	2.3417	1484.9026	137.4815	0.5462	385.0602	3.4937	2.0456	1.8949	801.7834		
	1534.7001	308.7823	2.2945	1485.0526	140.4427	0.5241	390.8704	3.4862	2.0568	1.9702	835.1845		
	1534.8501	310.0129	2.2453	1485.2025	144.9852	0.4769	395.4662	3.3733	2.0645	1.8899	843.7416		
	1535	310.5076	2.1899	1485.3525	140.1075	0.4382	397.8484	3.0178	2.1321	1.9289	850.8928		
	1535.15	310.8845	2.1695	1485.5024	124.8805	0.4066	398.6643	2.578	2.262	2.1855	852.3651		
	1535.3	311.1019	2.2483	1485.6525	114.5364	0.3724	395.8413	2.4259	2.3537	2.4859	857.7084		
	1535.4501	310.3521	2.3892	1485.8022	110.0646	0.3437	387.5905	2.5739	2.3119	2.5125	852.1941		
	1535.6001	310.3417	2.5075	1485.9524	111.8722	0.3242	377.0276	2.8305	2.2033	2.2326	832.7429		
	1535.75	312.3902	2.5719	1486.1022	107.0663	0.3009	367.0967	3.0473	2.107	1.9085	806.8801		
	1535.9	314.7243	2.59	1486.2522	104.5547	0.2774	358.2532	3.2137	2.0988	1.7962	802.4985		
	1536.05	315.6739	2.5719	1486.4021	97.3885	0.261	350.8132	3.2511	2.2082	1.8904	770.6336		
	1536.2001	315.6531	2.535	1486.5522	92.3914	0.2476	339.1818	3.0953	2.3172	2.105	740.9816		
	1536.3501	315.1831	2.4854	1486.7023	91.9272	0.2257	327.2353	2.8472	2.5501	2.3986	693.2815		
	1536.5	314.7143	2.4325	1486.8521	88.1951	0.2069	318.5666	2.6748	2.82	2.8011	605.3904		
	1536.65	314.2329	2.4049	1487.0021	80.6232	0.2046	310.9561	2.5933	2.9758	3.0781	579.6408		
	1536.8	314.1535	2.4155	1487.1521	72.5387	0.204	303.648	2.535	3.0879	3.1533	559.205		
	1536.9501	313.7943	2.4482	1487.302	67.2369	0.1987	303.8064	2.5316	3.1746	3.2075	547.0648		
	1537.1001	310.5023	2.4577	1487.4528	63.5192	0.2	303.1438	2.555	3.336	3.3164	552.4453		
	1537.25	304.8279	2.4431	1487.6044	58.9217	0.2133	302.3672	2.6029	3.4876	3.4948	560.6807		
	1537.4	301.3714	2.4268	1487.7543	49.886	0.2293	300.7628	2.7189	3.4985	3.7314	565.0175		
	1537.55	301.5296	2.3995	1487.9042	50.7031	0.2359	300.3894	2.8513	3.6132	3.7845	568.0809		
	1537.7001	303.6604	2.3651	1488.0542	56.9788	0.2334	299.3071	2.8458	3.5094	3.5822	572.3372		
	1537.8501	306.1362	2.3479	1488.2042	56.0733	0.2315	300.5504	2.6704	3.4825	3.4073	574.9769		
	1538	308.399	2.3505	1488.3541	53.2368	0.2358	305.4224	2.4858	3.4408	3.365	574.7597		
	1538.15	309.5869	2.3766	1488.504	50.7587	0.249	310.8866	2.3811	3.4457	3.4812	574.9798		
	1538.3	310.3522	2.4256	1488.6541	53.7249	0.2673	313.7584	2.3959	3.4812	3.6502	577.2784		
	1538.4501	312.0471	2.4906	1488.8041	46.4614	0.2799	313.2626	2.6735	3.5612	3.977	576.4001		
	1538.6001	314.1176	2.5573	1488.954	40.9256	0.2768	313.2078	3.1626	3.5999	4.1549	575.5594		
	1538.75	314.5577	2.5912	1489.1041	44.4392	0.2704	311.5373	3.3627	3.5136	4.0023	579.3362		
	1538.9	314.0305	2.5951	1489.2539	55.4851	0.2637	309.8208	3.3342	3.3174	3.6006	590.3424		
	1539.05	313.7289	2.5799	1489.4039	68.8732	0.2519	308.7964	3.2639	2.991	3.0043	601.6799		
	1539.2001	314.3664	2.5635	1489.5538	77.4524	0.2317	309.3273	3.1989	2.6705	2.4776	610.8543		
	1539.3501	314.9312	2.5606	1489.7039	81.8377	0.2113	310.6672	3.1493	2.4621	2.2655	621.464		
	1539.5	314.7178	2.5691	1489.8538	81.7979	0.1991	311.6571	3.113	2.3978	2.2305	631.5108		
	1539.65	314.3906	2.5659	1490.0037	84.2132	0.1934	313.0024	3.0828	2.3854	2.2145	639.2047		
	1539.8	314.2719	2.5149	1490.1536	81.392	0.1937	314.3761	3.0277	2.4241	2.2486	648.864		
	1539.9501	314.1199	2.4238	1490.3036	74.7487	0.2005	313.752	2.8419	2.5444	2.5056	659.1406		
	1540.1001	313.7739	2.3516	1490.4536	71.9357	0.2115	311.6605	2.5238	2.6713	2.6933	658.577		
	1540.25	313.4659	2.3287	1490.6036	67.3692	0.2208	310.0955	2.3002	2.7763	2.7446	638.5897		
	1540.4	313.3717	2.3478	1490.7535	61.2911	0.2217	312.7486	2.317	2.9379	2.9113	615.1221		
	1540.55	313.2939	2.3816	1490.9034	52.9364	0.2148	315.9841	2.4673	3.1712	3.1476	602.6094		
	1540.7001	313.2133	2.4031	1491.0536	46.6887	0.2063	317.8065	2.5688	3.4241	3.5336	598.9919		
	1540.8501	313.4581	2.4069	1491.2035	43.2642	0.2013	318.2436	2.5628	3.5988	3.9219	597.3668		
	1541	313.9616	2.4093	1491.3534	44.4849	0.1981	317.3204	2.5307	3.6251	3.9981	598.7297		
	1541.15	314.2701	2.4194	1491.5033	49.2351	0.1921	313.2791	2.5764	3.5635	3.8379	602.6328		
	1541.3	314.3087	2.4294	1491.6533	54.5947	0.1866	305.0508	2.7191	3.4707	3.6574	600.6216		
	1541.4501	314.2864	2.4329	1491.8032	59.2247	0.1917	296.5556	2.8694	3.3305	3.4523	590.6168		
	1541.6001	314.3115	2.4361	1491.9532	59.7728	0.2141	290.8313	2.9426	3.1798	3.2442	577.6901		
	1541.75	314.5312	2.4462	1492.1031	56.6871	0.2534	288.0912	3.0195	3.0754	3.2002	559.3873		
	1541.9	314.9619	2.4575	1492.2531	53.4447	0.29	285.8619	3.1699	2.9717	3.2261	544.4274		
	1542.05	315.3416	2.4637	1492.4032	57.2232	0.3113	285.6915	3.3154	2.7956	3.0624	542.2737		
	1542.2001	315.3965	2.4679	1492.5531	65.4096	0.326	291.2517	3.3943	2.5887	2.7868	548.7851		
	1542.3501	315.2327	2.472	1492.7031	72.9064	0.341	300.2607	3.4433	2.4024	2.5308	563.5087		
	1542.5	315.2786	2.4744	1492.853	79.9793	0.3533	310.562	3.4906	2.2353	2.2744	585.4745		
	1542.65	315.576	2.473	1493.0029	82.8141	0.3534	319.3453	3.5075	2.1034	2.0853	614.9061		
	1542.8	315.7893	2.4668	1493.153	86.8615	0.3403	326.5607	3.4845	1.9872	1.9438	642.8536		
	1542.9501	315.8363	2.4606	1493.3029	92.5279	0.3239	332.4813	3.4353	1.8821	1.7935	667.6324		
	1543.1001	315.8363	2.4624	1493.4528	95.6117	0.3104	336.1641	3.3965	1.8248	1.7052	691.4614		
	1543.25	315.8363	2.4719	1493.6028	97.0254	0.2999	338.2862	3.4033	1.8269	1.7346	712.4608		
	1543.4	315.8363	2.479	1493.7527	95.3505	0.2893	338.8801	3.416	1.8887	1.8902	721.8998		
	1543.55	315.8593	2.4804	1493.9027	94.2823	0.2771	336.626	3.3608	1.9812	2.0576	718.1227		
	1543.7001	315.9526	2.4872	1494.0526	95.5415	0.2646	332.0734	3.2412	2.0623	2.1476	710.6735		
	1543.8501	316.0569	2.5041	1494.2028	94.7146	0.2528	326.4924	3.1387	2.1136	2.1963	697.2637		
	1544	315.9512	2.5145	1494.3527	91.0695	0.241	322.6293	3.1096	2.1584	2.2489	671.6774		
	1544.15	315.4699	2.5051	1494.5026	88.5027	0.2332	324.0592	3.0707	2.2295	2.3536	652.2156		
	1544.3	314.7268	2.4837	1494.6526	85.8876	0.2339	333.5294	2.9312	2.3144	2.4506	649.4831		
	1544.4501	313.8156	2.4649	1494.8025	79.8177	0.2377	331.3094	2.8355	2.3738	2.5204	650.4651		
	1544.6001	312.6461	2.4364	1494.9525	77.2448	0.2361	324.9494	2.9067	2.4295	2.5755	645.4534		
	1544.75	311.8169	2.3932	1495.1024	70.0682	0.2288	316.948	2.9701	2.4645	2.6003	636.0938		
	1544.9	311.3516	2.3524	1495.2523	64.2798	0.2327	315.6738	2.858	2.4913	2.6395	625.3964		
	1545.05	309.4571	2.3222	1495.4022	60.1154	0.2789	315.702	2.7179	2.4793	2.6241	605.9169		
	1545.2001	307.4059	2.2555	1495.5524	65.6898	0.3805	317.9896	2.8104	2.3732	2.4743	578.2614		
	1545.3501	308.0502	2.0684	1495.7023	82.9052	0.5867	326.9189	2.927	2.2293	2.0892	564.3378		
	1545.5	310.8404	1.7818	1495.8522	78.7153	0.8536	336.9847	2.7289	2.1621	1.8428	586.7398		
	1545.65	312.9745	1.4988	1496.0021	50.7694	0.932	354.135	1.9748	2.2034	1.9152	631.3236		
	1545.8	313.4381	1.3877	1496.1522	46.5737	0.7679	378.7415	1.1592	2.405	2.0012	673.0164		
	1545.9501	312.6973	1.5935	1496.3021	58.0635	0.5727	398.73	1.0076	2.7978	2.5505	704.8334		
	1546.1001	310.9678	1.9612	1496.4521	78.8796	0.4461	404.1856	1.5002	3.6508	4.3822	738.6389		
	1546.25	309.3894	2.2563	1496.6021	94.3428	0.4052	407.9026	2.3706	4.3177	6.7736	914.1739		
	1546.4	309.6244	2.3798	1496.752	106.5028	0.385	403.6934	3.1167	4.2467	7.367	984.7361		
	1546.55	311.5442	2.4257	1496.902	104.7515	0.3451	396.401	3.5193	3.6378	5.4111	1007.4706		
	1546.7001	314.0278	2.4722	1497.054	92.4993	0.3092	385.9321	3.6333	2.9868	3.3687	1005.9217		
	1546.8501	316.2064	2.5052	1497.2043	90.8725	0.2884	376.6372	3.5158	2.6972	2.5746	993.4925		
	1547	317.0025	2.5253	1497.3542	95.7406	0.2745	367.2569	3.3766	2.5753	2.3794	929.7966		
