~VERSION	INFORMATION												
	VERS.	2	:	CWLS	LOG	ASCII	STANDARD	-	VERSION	2			
	WRAP.	NO	:	ONE	LINE	PER	DEPTH	STEP					
#													
~Well	Information	Section											
#MNEM	.UNIT	DATA	DESCRIPTION										
#-----	-----	--------	--------------										
	STRT	.M	410	:	START	DEPTH							
	STOP	.M	2720	:	END	DEPTH							
	STEP	.M	0.15	:	INCREMENT	DEPTH							
	NULL	.	-999.25	:	NULL	VALUE							
	COMP	.	:										
	WELL	.	XXXX	:	WELL	NAME							
	EKB	.M	0	:	KELLY	BUSHING	ELEVATION						
	EGL	.M	0	:	GROUND	LEVEL	ELEVATION						
	FLD	.	:										
	LOC	.	X	=	0	Y	=	0.0000:	WELL	LOCATION			
	PROV	.	:										
	SRVC	.	:										
	PROV	.	:										
	DATE	.	:										
	UWI	.	Unknown	:	UNIQUE	WELL	ID						
	API	.	:										
#													
~Curve	Information	Section											
#MNEM	.UNIT	Curve	#DESCRIPTION										
#-----	-----	----	--------------										
	DEPTH	.M	:	1	Name	=	Domain	Curve	-	Type	=	DEPTH	
	CALI	.mm	:	2	Name	=	Caliper_1	-	Type	=	Caliper		
	RHOB	.g/cc	:	3	Name	=	Density_3	-	Type	=	Density		
	UNKNOWN	.ft	:	4	Name	=	Depth_TVD	-	Type	=	Depth		
	GR	.API	:	5	Name	=	Gamma	Ray_1	-	Type	=	Gamma	Ray
	NPHI	.v/v	:	6	Name	=	Neutron	Porosity_1	-	Type	=	Neutron	Porosity
	DT	.us/m	:	7	Name	=	P-wave_1	-	Type	=	P-wave		
	UNKNOWN	.b/e	:	8	Name	=	Photoelectric_1	-	Type	=	Photoelectric		
	RES	.ohm-ft	:	9	Name	=	Resistivity	-	Type	=	Resistivity		
	RES	.ohm-m	:	10	Name	=	Resistivity_1	-	Type	=	Resistivity		
	SDT	.us/m	:	11	Name	=	S-wave_1	-	Type	=	S-wave		
~A	(ASCII	LOG	DATA)										
# ...
	956.75	313.3774	2.4272	921.9984	63.6706	0.2857	351.8303	2.7575	2.4652	2.7186	786.5867		
	956.9	313.3157	2.4296	922.1298	65.2633	0.2949	348.5784	2.6685	2.4801	2.6734	778.8279		
	957.05	313.5004	2.4471	922.247	70.9187	0.2906	344.8058	2.7027	2.481	2.6158	751.3071		
	957.2	313.6692	2.466	922.3938	73.8846	0.2826	341.955	2.9409	2.4784	2.5666	736.4424		
	957.35	313.7053	2.4629	922.5437	73.6704	0.2823	340.5744	3.2144	2.497	2.5502	729.4075		
	957.5	313.7078	2.4476	922.6937	78.8094	0.282	341.6718	3.1777	2.5154	2.567	730.7981		
	957.65	313.7078	2.4387	922.8436	76.7203	0.2766	345.7113	2.972	2.5248	2.5985	733.665		
	957.8	313.7078	2.4358	922.9936	67.1675	0.2796	349.5117	2.8164	2.5092	2.6291	736.5328		
	957.95	313.6851	2.4292	923.1436	64.0042	0.2888	352.2453	2.7955	2.488	2.6376	739.4004		
	958.1	313.5264	2.413	923.2892	67.9794	0.2952	355.9468	2.8273	2.4445	2.6326	747.5801		
	958.25	313.3087	2.4002	923.4113	71.5505	0.3007	360.5576	2.8714	2.3435	2.5646	754.2351		
	958.4	313.2543	2.368	923.5536	68.6748	0.3091	364.6874	2.9018	2.2109	2.4335	769.9189		
	958.55	313.329	2.3151	923.7036	71.1171	0.3185	368.2705	2.84	2.1125	2.3613	792.9056		
	958.7	313.3565	2.2664	923.8535	69.2194	0.3312	371.0168	2.6925	2.077	2.3131	816.7057		
	958.85	313.2193	2.2325	923.9891	59.6935	0.3425	373.2179	2.4944	1.9556	2.1215	831.0965		
	959	313.0896	2.2183	924.1093	48.1908	0.3367	374.1783	2.3571	1.7452	1.84	844.3164		
	959.15	312.9968	2.2021	924.2488	41.063	0.3162	372.0804	2.3405	1.5643	1.6148	853.4524		
	959.3	312.9635	2.1681	924.3988	37.4039	0.301	369.3336	2.2565	1.5094	1.562	851.9244		
	959.45	313.1379	2.1375	924.5488	31.9307	0.2956	366.686	2.0438	1.4513	1.4787	842.2646		
	959.6	313.4085	2.1276	924.6861	25.8095	0.2965	364.1478	1.8634	1.3259	1.2877	828.6556		
	959.75	313.6071	2.126	924.8074	22.7647	0.3025	363.2606	1.7762	1.2332	1.1875	814.9313		
	959.9	313.6917	2.1221	924.9443	23.9812	0.3094	362.4065	1.7339	1.2	1.1876	806.7635		
	960.05	313.7078	2.1196	925.0943	27.1147	0.315	360.7933	1.7062	1.1966	1.2206	801.1306		
	960.2	313.7078	2.1281	925.2442	27.0431	0.3201	359.7312	1.7045	1.2045	1.2491	793.3709		
	960.35	313.736	2.1477	925.3831	26.3072	0.3226	359.3667	1.7457	1.2145	1.2657	785.3379		
	960.5	313.8476	2.1653	925.5056	25.8265	0.3185	358.85	1.8196	1.2286	1.2977	781.9627		
	960.65	313.9622	2.1662	925.6395	25.5285	0.3109	357.5876	1.8448	1.2665	1.3688	781.6357		
	960.8	313.8982	2.1605	925.7896	28.8955	0.3076	355.9965	1.7921	1.3145	1.4077	778.0864		
	960.95	313.6546	2.1697	925.9395	31.2059	0.3085	354.4441	1.7756	1.3397	1.4004	775.03		
	961.1	313.3935	2.1901	926.0895	29.1191	0.3066	352.762	1.8539	1.3579	1.4289	774.0131		
	961.25	313.3119	2.1991	926.2394	29.378	0.2967	351.1469	1.9167	1.3993	1.5191	768.215		
	961.4	313.4641	2.1922	926.3893	31.9402	0.2845	349.7648	1.8751	1.4523	1.6024	760.1663		
	961.55	313.6408	2.1861	926.537	32.6234	0.2829	348.5828	1.7998	1.4863	1.6025	755.6244		
	961.7	313.7018	2.1915	926.6697	32.5738	0.2915	347.9799	1.8043	1.4983	1.5728	754.9624		
	961.85	313.7078	2.2121	926.7994	32.5445	0.296	347.1568	1.9114	1.5078	1.5764	752.7878		
	962	313.7078	2.2444	926.9493	33.9144	0.2922	346.5695	2.1034	1.5298	1.6019	746.7521		
	962.15	313.7078	2.2662	927.0993	35.4654	0.289	349.239	2.3461	1.5697	1.6701	749.3632		
	962.3	313.7078	2.2659	927.2424	36.8018	0.2896	351.3635	2.4966	1.6068	1.8023	759.1417		
	962.45	313.7078	2.2645	927.3679	37.3283	0.2918	352.7333	2.4506	1.6085	1.822	767.5601		
	962.6	313.7078	2.2667	927.4948	34.4392	0.2969	354.0183	2.3313	1.5837	1.6717	773.3792		
	962.75	313.7078	2.2483	927.6447	33.3396	0.3016	355.0249	2.2982	1.5618	1.6495	781.2656		
	962.9	313.7078	2.2207	927.7947	32.6659	0.2992	355.7792	2.2323	1.5494	1.6758	792.277		
	963.05	313.7078	2.2233	927.9393	32.846	0.2943	358.3028	2.038	1.5247	1.6901	805.2992		
	963.2	313.7078	2.2284	928.0659	33.8915	0.2965	364.7556	1.9857	1.4642	1.6384	813.5797		
	963.35	313.7078	2.2171	928.1901	32.7682	0.3079	364.3217	2.0432	1.4042	1.517	820.7244		
	963.5	313.7078	2.1897	928.34	29.1829	0.3195	362.9328	2.0349	1.363	1.4485	821.421		
	963.65	313.7078	2.1644	928.49	27.3978	0.3178	360.6704	1.9392	1.3381	1.4228	816.6335		
	963.8	313.7078	2.1537	928.64	27.0637	0.3107	357.405	1.8965	1.3084	1.3939	802.8305		
	963.95	313.7078	2.15	928.79	27.9391	0.3173	349.1321	1.9317	1.2628	1.3467	789.1489		
	964.1	313.7109	2.1444	928.9399	30.4005	0.3275	349.0125	1.9153	1.2424	1.2741	774.9036		
	964.25	313.744	2.1358	929.0891	33.5232	0.3307	350.3206	1.8351	1.2471	1.2118	769.4044		
	964.4	313.8608	2.1377	929.2301	33.391	0.3315	359.2838	1.764	1.3002	1.241	769.4097		
	964.55	313.9907	2.167	929.3499	37.2311	0.3284	359.5707	1.758	1.3854	1.4116	770.111		
	964.7	313.9618	2.2155	929.4999	39.4795	0.3163	353.3887	1.7915	1.4419	1.5707	774.3555		
	964.85	313.8018	2.2523	929.6498	36.7093	0.3016	356.511	1.8682	1.4884	1.7058	773.6185		
	965	313.7078	2.2497	929.7985	33.4825	0.2976	353.1671	1.9515	1.4907	1.7323	768.4849		
	965.15	313.7078	2.2088	929.9282	27.5448	0.3057	348.9216	1.9588	1.4582	1.5928	758.91		
	965.3	313.7078	2.1682	930.0452	28.7953	0.3089	337.7034	1.8673	1.4468	1.4716	748.7661		
	965.45	313.7078	2.1531	930.1951	29.5991	0.2966	334.5453	1.7545	1.4308	1.479	738.2996		
	965.6	313.7078	2.158	930.3459	32.6597	0.2845	333.8731	1.7181	1.4813	1.5452	737.1398		
	965.75	313.7078	2.173	930.4975	34.1558	0.2876	335.7304	1.748	1.5286	1.6095	737.9486		
	965.9	313.7078	2.1931	930.6278	34.0543	0.2925	338.2549	1.7884	1.5475	1.6439	736.494		
	966.05	313.7078	2.219	930.7442	32.1924	0.283	340.2785	1.8609	1.6239	1.7463	749.7412		
	966.2	313.7078	2.2432	930.8929	33.2724	0.2674	342.4138	1.9742	1.6765	1.8999	760.1915		
	966.35	313.7078	2.2557	931.0428	34.9822	0.2585	343.1963	2.0855	1.7101	1.9304	771.6074		
	966.5	313.7078	2.2568	931.1929	38.8328	0.2613	351.7028	2.1476	1.6953	1.8802	770.7811		
	966.65	313.7078	2.2408	931.3248	33.3324	0.2687	344.4066	2.176	1.6374	1.7265	769.7997		
	966.8	313.7078	2.2148	931.4423	32.1703	0.2718	343.1509	2.1679	1.5526	1.5301	766.1958		
	966.95	313.721	2.1892	931.5883	31.3243	0.2724	345.6281	2.068	1.4808	1.4622	765.074		
	967.1	313.8549	2.174	931.7382	27.8215	0.2788	346.7032	1.8911	1.4536	1.4785	770.4058		
	967.25	313.9882	2.1796	931.8881	29.5063	0.2852	347.1376	1.8322	1.4614	1.5627	774.9791		
	967.4	313.9976	2.1934	932.038	29.2769	0.2882	346.9315	1.8874	1.4539	1.5406	774.1038		
	967.55	313.9846	2.2004	932.188	26.5085	0.2933	345.993	1.9788	1.4335	1.5027	778.822		
	967.7	314.0461	2.196	932.338	25.3223	0.3001	346.0126	2.0232	1.4108	1.4655	776.151		
	967.85	314.1045	2.1894	932.4838	26.9047	0.3004	347.2734	1.986	1.3909	1.454	776.9223		
	968	314.0515	2.1899	932.6064	27.6347	0.2949	348.5002	1.9272	1.3864	1.4911	784.0132		
	968.15	313.9084	2.1939	932.7479	26.26	0.2935	349.0144	1.934	1.3886	1.4895	790.8935		
	968.3	313.7845	2.1918	932.8979	26.5151	0.3016	348.7421	2.0223	1.3726	1.4403	794.4733		
	968.45	313.8055	2.1825	933.0479	28.0962	0.3105	348.5874	2.1078	1.3485	1.4031	781.377		
	968.6	313.9306	2.1764	933.184	29.3716	0.3086	349.3059	2.083	1.344	1.4462	773.9303		
	968.75	313.9959	2.1776	933.3044	25.9967	0.3007	350.729	1.9749	1.3375	1.4126	775.3293		
	968.9	313.9899	2.176	933.4432	22.9033	0.2985	353.213	1.8733	1.31	1.2881	778.6686		
	969.05	314.0033	2.165	933.5931	23.4722	0.3036	356.1801	1.8239	1.2908	1.2639	779.5497		
	969.2	313.9658	2.1541	933.7431	25.3319	0.3075	358.8654	1.8061	1.292	1.3588	783.3771		
	969.35	313.8325	2.1529	933.8809	28.7324	0.3053	361.1367	1.7893	1.2945	1.3976	786.8285		
	969.5	313.739	2.156	934.0026	28.8854	0.2995	361.778	1.7878	1.2894	1.377	787.9536		
	969.65	313.7646	2.1567	934.1387	26.1344	0.2952	359.92	1.8149	1.2814	1.3523	796.0228		
	969.8	313.8782	2.1554	934.2886	24.3011	0.3011	356.5023	1.86	1.2576	1.3005	800.9907		
	969.95	313.9582	2.1508	934.4386	24.4456	0.3188	352.7064	1.8923	1.2237	1.2378	791.529		
	970.1	313.8978	2.1397	934.5779	24.7742	0.3378	349.8968	1.8743	1.2073	1.253	774.7026		
	970.25	313.7786	2.1268	934.7006	24.4878	0.3463	349.1235	1.8246	1.2174	1.3055	758.6349		
	970.4	313.775	2.1222	934.8339	26.1346	0.3373	350.5499	1.7888	1.2356	1.3247	752.6965		
