~VERSION	INFORMATION												
	VERS.	2	:	CWLS	LOG	ASCII	STANDARD	-	VERSION	2			
	WRAP.	NO	:	ONE	LINE	PER	DEPTH	STEP					
#													
~Well	Information	Section											
#MNEM	.UNIT	DATA	DESCRIPTION										
#-----	-----	--------	--------------										
	STRT	.M	410	:	START	DEPTH							
	STOP	.M	2720	:	END	DEPTH							
	STEP	.M	0.15	:	INCREMENT	DEPTH							
	NULL	.	-999.25	:	NULL	VALUE							
	COMP	.	:										
	WELL	.	XXXX	:	WELL	NAME							
	EKB	.M	0	:	KELLY	BUSHING	ELEVATION						
	EGL	.M	0	:	GROUND	LEVEL	ELEVATION						
	FLD	.	:										
	LOC	.	X	=	0	Y	=	0.0000:	WELL	LOCATION			
	PROV	.	:										
	SRVC	.	:										
	PROV	.	:										
	DATE	.	:										
	UWI	.	Unknown	:	UNIQUE	WELL	ID						
	API	.	:										
#													
~Curve	Information	Section											
#MNEM	.UNIT	Curve	#DESCRIPTION										
#-----	-----	----	--------------										
	DEPTH	.M	:	1	Name	=	Domain	Curve	-	Type	=	DEPTH	
	CALI	.mm	:	2	Name	=	Caliper_1	-	Type	=	Caliper		
	RHOB	.g/cc	:	3	Name	=	Density_3	-	Type	=	Density		
	UNKNOWN	.ft	:	4	Name	=	Depth_TVD	-	Type	=	Depth		
	GR	.API	:	5	Name	=	Gamma	Ray_1	-	Type	=	Gamma	Ray
	NPHI	.v/v	:	6	Name	=	Neutron	Porosity_1	-	Type	=	Neutron	Porosity
	DT	.us/m	:	7	Name	=	P-wave_1	-	Type	=	P-wave		
	UNKNOWN	.b/e	:	8	Name	=	Photoelectric_1	-	Type	=	Photoelectric		
	RES	.ohm-ft	:	9	Name	=	Resistivity	-	Type	=	Resistivity		
	RES	.ohm-m	:	10	Name	=	Resistivity_1	-	Type	=	Resistivity		
	SDT	.us/m	:	11	Name	=	S-wave_1	-	Type	=	S-wave		
~A	(ASCII	LOG	DATA)										
# ...
	1826.9	213.8375	2.5348	1777.2533	94.5812	0.2851	268.8246	3.1097	2.9084	2.7103	483.1912		
	1827.05	213.8375	2.5382	1777.4033	92.3758	0.2744	270.2266	2.9877	3.017	2.8627	484.7668		
	1827.2001	213.8375	2.5361	1777.5532	91.1224	0.2548	272.5975	2.9171	3.0987	2.9762	491.7621		
	1827.3501	213.8375	2.5321	1777.7032	89.0219	0.2385	276.8884	2.9188	3.2082	3.0758	501.0718		
	1827.5	213.8375	2.5298	1777.8531	86.493	0.2297	281.5267	2.9592	3.3794	3.2913	509.9363		
	1827.65	213.8502	2.5376	1778.0031	84.4722	0.2186	284.8189	3.0114	3.5393	3.5441	517.3213		
	1827.8	213.9083	2.5492	1778.1532	84.8784	0.2057	288.1508	3.0058	3.6247	3.6902	522.8784		
	1827.9501	214.0566	2.5481	1778.3031	86.6854	0.1994	290.707	2.9316	3.6512	3.7205	528.4265		
	1828.1001	214.2964	2.5333	1778.4531	85.9922	0.1989	291.163	2.8601	3.6505	3.6867	533.2938		
	1828.25	214.4982	2.5159	1778.603	83.1347	0.1999	288.605	2.8248	3.6601	3.6665	531.7428		
	1828.4	214.5976	2.5072	1778.7529	82.3183	0.2005	283.1348	2.8162	3.6783	3.6735	521.8206		
	1828.55	214.7931	2.5089	1778.903	82.8033	0.2016	277.2711	2.8	3.6874	3.6992	508.64		
	1828.7001	215.1236	2.5157	1779.0529	83.0333	0.2027	274.366	2.7472	3.6731	3.7093	493.8615		
	1828.8501	215.3132	2.5211	1779.2028	86.357	0.2033	274.1214	2.675	3.6347	3.6367	481.1187		
	1829	215.206	2.5215	1779.3528	87.3482	0.2072	274.9996	2.6619	3.5509	3.4583	478.4906		
	1829.15	214.8652	2.5218	1779.5027	89.2363	0.2179	277.8992	2.7743	3.4147	3.2623	484.1898		
	1829.3	214.6052	2.5298	1779.6527	91.3844	0.2298	283.2937	2.9402	3.3782	3.2094	494.4063		
	1829.4501	214.564	2.5396	1779.8026	89.1042	0.233	289.8759	3.0275	3.428	3.278	507.8456		
	1829.6001	214.5529	2.5452	1779.9528	81.0457	0.2286	295.5572	3.0293	3.5131	3.4928	522.4333		
	1829.75	214.4742	2.5447	1780.1027	70.3419	0.2225	298.3051	2.9989	3.606	3.7278	539.6104		
	1829.9	214.2912	2.5369	1780.2526	62.6369	0.212	300.3088	2.9797	3.688	3.8494	551.4601		
	1830.05	214.152	2.5285	1780.4026	59.3049	0.1953	301.3741	2.9488	3.7274	3.8377	559.2209		
	1830.2001	214.1555	2.5194	1780.5525	58.4144	0.1793	302.6537	2.8472	3.6982	3.7259	562.6425		
	1830.3501	214.2568	2.5059	1780.7025	54.2972	0.1759	302.7963	2.7097	3.6328	3.5557	556.0711		
	1830.5	214.3665	2.4861	1780.8524	48.9783	0.1834	301.7506	2.5676	3.5495	3.3935	557.4971		
	1830.65	214.309	2.4565	1781.0023	48.3588	0.1938	304.7123	2.4166	3.5345	3.4079	569.5654		
	1830.8	214.0903	2.4124	1781.1522	62.0777	0.2087	315.7799	2.2525	3.6033	3.5988	584.5735		
	1830.9501	213.8808	2.3583	1781.3024	80.8692	0.2343	315.3594	2.2287	3.6673	3.6849	591.657		
	1831.1001	213.8378	2.3361	1781.4523	80.57	0.2659	309.3333	2.5405	3.6267	3.5946	588.6192		
	1831.25	213.845	2.343	1781.6022	81.5288	0.2865	302.1617	2.8703	3.5479	3.4655	578.4264		
	1831.4	213.9042	2.3604	1781.7521	85.2699	0.2737	290.9841	2.899	3.4526	3.2859	562.4044		
	1831.55	214.1204	2.3861	1781.9022	88.8176	0.2531	282.4074	2.7677	3.3873	3.208	531.9079		
	1831.7001	214.3932	2.4216	1782.0521	99.6464	0.2512	276.4813	2.7509	3.3188	3.0735	515.8466		
	1831.8501	214.5278	2.4452	1782.2021	104.7041	0.2699	273.7846	2.8995	3.225	2.9328	508.5152		
	1832	214.5619	2.4423	1782.3521	106.6553	0.2941	273.5796	3.0725	3.1663	2.8475	507.9213		
	1832.15	214.5001	2.427	1782.502	103.4976	0.3143	273.1186	3.1773	3.1581	2.7416	501.9446		
	1832.3	214.3449	2.4241	1782.652	96.7047	0.3252	271.9667	3.1231	3.2722	3.0598	497.6736		
	1832.4501	214.1652	2.4404	1782.804	95.1237	0.3158	270.1872	2.9327	3.4147	3.3538	491.791		
	1832.6001	214.0975	2.4539	1782.9543	94.7034	0.2766	267.8838	2.7483	3.5097	3.4075	485.9299		
	1832.75	214.2323	2.4686	1783.1042	90.1854	0.2306	265.4091	2.5693	3.57	3.459	477.8988		
	1832.9	214.4399	2.4992	1783.2542	89.3735	0.2036	263.2424	2.4665	3.6882	3.5798	471.157		
	1833.05	214.5427	2.5373	1783.4042	88.313	0.195	261.4606	2.4778	3.8435	3.783	466.1767		
	1833.2001	214.5394	2.5602	1783.5541	86.9908	0.1907	260.0753	2.4765	3.9405	3.9344	462.4301		
	1833.3501	214.4533	2.5627	1783.7041	87.2814	0.1889	260.5133	2.4584	4.0109	4.0331	459.8139		
	1833.5	214.3835	2.5566	1783.8541	84.4453	0.1913	263.8218	2.483	4.096	4.153	456.3431		
	1833.65	214.416	2.5521	1784.004	82.4344	0.1971	268.1285	2.5548	4.1497	4.2416	456.7288		
	1833.8	214.5919	2.5506	1784.1541	81.1661	0.2003	272.7178	2.641	4.1751	4.2801	464.7285		
	1833.9501	215.1209	2.5504	1784.304	80.8506	0.198	275.2411	2.7191	4.1638	4.2764	474.0041		
	1834.1001	215.9478	2.5492	1784.4541	79.6305	0.1894	277.2496	2.7221	4.1345	4.2405	483.5911		
	1834.25	216.0142	2.5449	1784.6039	76.1326	0.1805	276.9638	2.6682	4.1019	4.2191	491.8658		
	1834.4	215.4246	2.5391	1784.7539	71.966	0.1747	273.9831	2.6109	4.0513	4.1733	496.1566		
	1834.55	214.7971	2.5355	1784.9038	66.1819	0.172	270.503	2.5916	3.9609	4.0716	493.9522		
	1834.7001	214.4356	2.5369	1785.0538	55.2571	0.1697	268.0335	2.6201	3.8326	3.8255	486.5337		
	1834.8501	214.1647	2.541	1785.2037	47.4026	0.169	266.627	2.6325	3.7129	3.6062	478.6607		
	1835	214.0148	2.5399	1785.3538	54.4715	0.1742	266.5402	2.5577	3.6515	3.5597	472.6359		
	1835.15	214.0592	2.5157	1785.5035	68.8215	0.1861	266.9814	2.3904	3.7564	3.6523	469.8819		
	1835.3	214.1901	2.4556	1785.6536	79.0683	0.1996	267.3183	2.297	3.7918	3.7285	472.0994		
	1835.4501	214.2458	2.4022	1785.8036	77.7995	0.2066	267.6948	2.4008	3.784	3.7807	473.6894		
	1835.6001	214.1939	2.4105	1785.9536	70.6734	0.2051	267.9102	2.5745	3.7962	3.8165	474.7344		
	1835.75	214.0941	2.4613	1786.1036	66.1023	0.2025	267.4194	2.669	3.803	3.8201	475.4596		
	1835.9	214.0641	2.5068	1786.2534	65.3302	0.2005	266.6335	2.6786	3.8048	3.8101	475.1317		
	1836.05	214.174	2.5289	1786.4034	61.7173	0.1956	265.8238	2.6646	3.7969	3.7607	474.3425		
	1836.2001	214.3644	2.5328	1786.5533	58.773	0.1884	265.1332	2.6531	3.78	3.7308	471.5093		
	1836.3501	214.5113	2.5289	1786.7035	61.1956	0.184	265.2133	2.6433	3.8147	3.8429	469.1343		
	1836.5	214.5607	2.5162	1786.8533	64.2244	0.1847	266.1581	2.6152	3.8224	3.833	472.232		
	1836.65	214.564	2.495	1787.0033	64.574	0.1878	267.7762	2.5686	3.7818	3.7255	480.1067		
	1836.8	214.564	2.4741	1787.1532	63.4359	0.19	270.8932	2.5535	3.7874	3.7947	492.8337		
	1836.9501	214.564	2.4715	1787.3032	61.5336	0.1875	276.741	2.6344	3.8243	3.9095	517.8119		
	1837.1001	214.564	2.4961	1787.4531	59.6703	0.182	287.6408	2.7402	3.8536	3.9618	550.7078		
	1837.25	214.564	2.5258	1787.6031	59.5701	0.178	300.0392	2.7437	3.8507	3.967	573.2671		
	1837.4	214.564	2.5373	1787.7529	61.1552	0.1771	306.6531	2.6585	3.7992	3.9213	584.2442		
	1837.55	214.5815	2.5328	1787.9031	65.3959	0.1807	307.8092	2.5828	3.7441	3.8699	590.0543		
	1837.7001	214.726	2.5267	1788.0531	66.5136	0.187	305.6641	2.5686	3.6967	3.8047	589.1721		
	1837.8501	215.1354	2.5249	1788.203	61.9151	0.1924	300.1959	2.5856	3.6081	3.7418	581.941		
	1838	215.621	2.5186	1788.353	62.2461	0.2004	293.0828	2.5893	3.4713	3.6143	565.9384		
	1838.15	215.6324	2.502	1788.5028	68.6801	0.22	287.5312	2.6132	3.3498	3.4482	550.8718		
	1838.3	215.0122	2.4872	1788.653	78.1023	0.2541	284.4376	2.7316	3.2243	3.3752	541.9871		
	1838.4501	214.3437	2.4882	1788.8029	87.4456	0.2936	282.8456	2.9405	2.9966	3.1121	529.4546		
	1838.6001	214.0741	2.5026	1788.9529	93.6675	0.3233	280.9564	3.138	2.7659	2.6716	518.0364		
	1838.75	214.1357	2.5185	1789.1027	98.0672	0.3266	279.0317	3.1775	2.6752	2.4487	507.4576		
	1838.9	214.377	2.5265	1789.2527	102.9446	0.3009	277.2838	3.022	2.6696	2.4137	498.0228		
	1839.05	214.539	2.5294	1789.4026	102.1313	0.2664	276.6004	2.8234	2.7209	2.4878	488.3016		
	1839.2001	214.564	2.5392	1789.5526	95.6863	0.2409	278.1729	2.726	2.8135	2.6516	479.7673		
	1839.3501	214.564	2.5543	1789.7025	92.8976	0.2279	282.011	2.7411	2.8937	2.7382	478.4554		
	1839.5	214.5602	2.5677	1789.8525	92.9232	0.2249	286.2348	2.7953	2.9835	2.7921	488.9716		
	1839.65	214.5117	2.5766	1790.0026	91.6891	0.2212	288.9461	2.8012	3.1133	2.9188	497.6575		
	1839.8	214.3312	2.575	1790.1525	90.2609	0.2092	289.8871	2.7698	3.3064	3.1514	502.3015		
	1839.9501	214.0973	2.5679	1790.3025	87.675	0.1962	290.4536	2.7659	3.5575	3.4743	499.2278		
	1840.1001	214.0508	2.5642	1790.4525	86.0884	0.1915	291.166	2.7083	3.7772	3.7006	496.9883		
