~VERSION	INFORMATION												
	VERS.	2	:	CWLS	LOG	ASCII	STANDARD	-	VERSION	2			
	WRAP.	NO	:	ONE	LINE	PER	DEPTH	STEP					
#													
~Well	Information	Section											
#MNEM	.UNIT	DATA	DESCRIPTION										
#-----	-----	--------	--------------										
	STRT	.M	410	:	START	DEPTH							
	STOP	.M	2720	:	END	DEPTH							
	STEP	.M	0.15	:	INCREMENT	DEPTH							
	NULL	.	-999.25	:	NULL	VALUE							
	COMP	.	:										
	WELL	.	XXXX	:	WELL	NAME							
	EKB	.M	0	:	KELLY	BUSHING	ELEVATION						
	EGL	.M	0	:	GROUND	LEVEL	ELEVATION						
	FLD	.	:										
	LOC	.	X	=	0	Y	=	0.0000:	WELL	LOCATION			
	PROV	.	:										
	SRVC	.	:										
	PROV	.	:										
	DATE	.	:										
	UWI	.	Unknown	:	UNIQUE	WELL	ID						
	API	.	:										
#													
~Curve	Information	Section											
#MNEM	.UNIT	Curve	#DESCRIPTION										
#-----	-----	----	--------------										
	DEPTH	.M	:	1	Name	=	Domain	Curve	-	Type	=	DEPTH	
	CALI	.mm	:	2	Name	=	Caliper_1	-	Type	=	Caliper		
	RHOB	.g/cc	:	3	Name	=	Density_3	-	Type	=	Density		
	UNKNOWN	.ft	:	4	Name	=	Depth_TVD	-	Type	=	Depth		
	GR	.API	:	5	Name	=	Gamma	Ray_1	-	Type	=	Gamma	Ray
	NPHI	.v/v	:	6	Name	=	Neutron	Porosity_1	-	Type	=	Neutron	Porosity
	DT	.us/m	:	7	Name	=	P-wave_1	-	Type	=	P-wave		
	UNKNOWN	.b/e	:	8	Name	=	Photoelectric_1	-	Type	=	Photoelectric		
	RES	.ohm-ft	:	9	Name	=	Resistivity	-	Type	=	Resistivity		
	RES	.ohm-m	:	10	Name	=	Resistivity_1	-	Type	=	Resistivity		
	SDT	.us/m	:	11	Name	=	S-wave_1	-	Type	=	S-wave		
~A	(ASCII	LOG	DATA)										
# ...
	1092.8	313.111	2.4044	1050.2681	91.3797	0.3915	391.1194	3.429	1.9625	1.982	901.7098		
	1092.95	313.2426	2.3959	1050.418	93.0536	0.4051	396.6779	3.3542	1.8921	1.9251	908.2399		
	1093.1001	313.3601	2.3833	1050.5565	99.2706	0.4203	411.6305	3.2581	1.8337	1.8744	943.6523		
	1093.25	313.6696	2.3662	1050.6788	103.3045	0.4215	421.1293	3.1418	1.7885	1.8457	988.1844		
	1093.4	314.1208	2.3287	1050.8151	97.0247	0.3988	418.6769	3.0308	1.7466	1.8236	1009.5904		
	1093.55	314.5212	2.2637	1050.9651	88.317	0.3711	410.8147	2.9462	1.6936	1.717	1018.2202		
	1093.7	314.5845	2.1935	1051.115	73.7893	0.3605	395.7185	2.7886	1.5915	1.4787	1009.2372		
	1093.8501	314.1253	2.1562	1051.255	57.5914	0.3764	380.5529	2.5454	1.4666	1.3126	955.762		
	1094	313.0081	2.1794	1051.3787	52.7124	0.4124	372.5854	2.4254	1.4561	1.402	907.8583		
	1094.15	311.4908	2.2798	1051.5123	67.9347	0.4449	370.5838	2.6021	1.5077	1.5144	906.9937		
	1094.3	310.976	2.3978	1051.6622	87.9571	0.4592	372.7494	2.8903	1.5301	1.5232	924.4235		
	1094.45	311.746	2.4613	1051.8123	94.7408	0.4569	375.9798	3.0905	1.5551	1.5426	944.0422		
	1094.6001	312.1975	2.4852	1051.9622	96.3018	0.4422	378.2791	3.2506	1.5875	1.5893	951.2467		
	1094.75	311.9699	2.5013	1052.1122	98.0962	0.4252	379.0312	3.3939	1.6402	1.6436	940.8295		
	1094.9	312.2816	2.5141	1052.2621	97.7832	0.412	378.4462	3.5051	1.7228	1.7463	920.4895		
	1095.05	313.4847	2.5123	1052.4111	92.8748	0.3872	376.1208	3.5576	1.8234	1.9191	899.531		
	1095.2	314.4464	2.4922	1052.5463	86.4514	0.3483	372.3283	3.4976	1.9347	2.0329	884.8981		
	1095.3501	314.3216	2.459	1052.6755	84.1594	0.317	367.7558	3.3072	2.0596	2.2145	865.2285		
	1095.5	313.6383	2.4201	1052.8256	81.7701	0.3073	366.0363	3.0455	2.1572	2.546	830.0125		
	1095.65	313.4419	2.3863	1052.9755	77.6612	0.3235	371.1083	2.8478	2.2181	2.6024	794.393		
	1095.8	313.78	2.3559	1053.1195	75.7746	0.3683	377.9907	2.8103	2.2529	2.4421	784.3453		
	1095.95	313.8336	2.3238	1053.2466	77.5707	0.4167	385.4926	2.9408	2.2454	2.3806	809.2434		
	1096.1001	313.2988	2.3041	1053.3734	82.419	0.426	392.6261	3.1928	2.2202	2.2529	849.9783		
	1096.25	312.5637	2.3035	1053.5233	86.3991	0.3925	400.0122	3.4086	2.2191	2.1258	875.8168		
	1096.4	312.2309	2.3152	1053.6732	85.2179	0.3508	404.6452	3.4693	2.2687	2.1166	874.1583		
	1096.55	312.6433	2.3256	1053.8187	83.1191	0.3373	406.3112	3.4034	2.3504	2.188	880.1885		
	1096.7	313.2991	2.3162	1053.9471	78.88	0.3721	406.2114	3.312	2.4309	2.2492	880.6176		
	1096.8501	313.6422	2.2195	1054.071	76.8903	0.4949	408.5597	3.1894	2.5377	2.3266	930.2403		
	1097	313.6432	1.9695	1054.2209	67.5027	0.7409	413.597	2.8857	2.7284	2.5065	968.6262		
	1097.15	313.4049	1.691	1054.3711	53.5551	0.9287	419.1663	2.3373	3.054	3.0687	1007.0593		
	1097.3	312.8503	1.6119	1054.5209	44.0637	0.7562	424.3481	1.752	3.4018	4.1408	1045.4659		
	1097.45	312.081	1.8659	1054.6709	52.9939	0.4923	424.913	1.6392	3.195	3.8348	1083.8765		
	1097.6001	311.7364	2.1541	1054.8209	72.3672	0.3835	419.6596	2.1199	2.9756	3.4229	1112.6721		
	1097.75	312.156	2.3374	1054.9707	85.8259	0.3091	403.8387	2.5895	2.7251	2.4962	1065.7452		
	1097.9	312.9898	2.4418	1055.1157	84.4791	0.2557	373.919	2.8833	2.7991	2.5082	1067.6033		
	1098.05	313.6328	2.4766	1055.2355	79.267	0.2422	355.0416	3.0657	2.9402	2.9027	632.9662		
	1098.2	314.0415	2.4677	1055.3853	74.09	0.252	325.0606	3.0876	2.9852	3.266	596.4177		
	1098.3501	314.239	2.4459	1055.5354	71.0531	0.2851	323.328	2.9126	2.9559	3.2433	560.441		
	1098.5	314.1589	2.4173	1055.6846	68.8633	0.3441	324.8523	2.7478	2.793	2.9802	553.404		
	1098.65	314.0178	2.3691	1055.8168	73.2072	0.4149	362.1532	2.7943	2.6302	2.7487	541.1707		
	1098.8	313.9286	2.3059	1055.9337	84.6942	0.4802	379.0185	2.9591	2.4711	2.5096	564.6074		
	1098.95	313.6925	2.246	1056.0844	109.3529	0.5143	389.4185	3.1431	2.2338	2.1908	759.3158		
	1099.1001	313.5309	2.2093	1056.236	128.6162	0.5056	415.1976	3.2049	2.1595	1.9605	806.3967		
	1099.25	313.7216	2.2114	1056.3861	130.3362	0.4856	428.5024	3.1228	2.0394	1.8796	849.516		
	1099.4	313.8355	2.2308	1056.5192	115.9425	0.5169	437.5625	2.9938	1.9648	1.842	973.7717		
	1099.55	313.7412	2.2161	1056.6365	108.7508	0.6092	446.6017	2.8696	1.8852	1.8127	1114.6288		
	1099.7	313.5608	2.1708	1056.7845	105.9463	0.6251	446.6464	2.8305	1.7731	1.6323	1152.548		
	1099.8501	313.0227	2.1775	1056.9344	102.6983	0.5247	443.3503	2.9816	1.6744	1.4619	1179.9866		
	1100	312.3526	2.2732	1057.0845	89.7147	0.4344	437.4861	3.1595	1.6028	1.3536	1207.4366		
	1100.15	312.1079	2.392	1057.2191	95.7795	0.3744	426.0341	3.0786	1.5743	1.3435	1190.3409		
	1100.3	312.2409	2.4753	1057.3376	102.8264	0.3184	411.8294	2.9378	1.5874	1.4116	1165.9557		
	1100.45	312.3861	2.5108	1057.4832	98.8521	0.2708	394.5358	3.0076	1.6572	1.5795	1141.5542		
	1100.6001	312.6615	2.5124	1057.6331	87.4942	0.237	377.6045	3.0824	1.8646	2.0338	1068.353		
	1100.75	313.2511	2.4998	1057.7831	79.988	0.2306	364.7477	2.9692	2.1377	2.4822	983.7264		
	1100.9	313.8922	2.4807	1057.9331	77.5823	0.24	353.5731	2.755	2.3186	2.6753	899.1251		
	1101.05	314.0662	2.4669	1058.083	79.0292	0.2535	344.8935	2.5863	2.4419	2.764	814.539		
	1101.2	313.7084	2.4709	1058.233	78.1025	0.2645	339.0298	2.5915	2.5343	2.8174	769.1188		
	1101.3501	313.1846	2.4829	1058.3827	78.7695	0.2716	335.8832	2.7456	2.6006	2.8564	737.1252		
	1101.5	312.9147	2.486	1058.5077	77.3614	0.2752	334.0678	2.9128	2.6664	2.8795	714.9901		
	1101.65	312.8359	2.471	1058.6487	76.0789	0.2742	332.4924	2.987	2.7103	2.8564	697.5948		
	1101.8	312.7018	2.4354	1058.7987	76.3942	0.2706	328.5527	2.9374	2.725	2.8252	683.539		
	1101.95	312.5249	2.3957	1058.9487	73.2298	0.2695	326.0839	2.7893	2.7269	2.8596	675.6494		
	1102.1001	312.4871	2.384	1059.0873	69.1324	0.2701	327.4116	2.6272	2.6992	2.7907	668.6464		
	1102.25	312.7037	2.406	1059.2095	62.5074	0.2656	324.0163	2.5828	2.6604	2.6329	661.2783		
	1102.4	313.221	2.4437	1059.3479	58.8705	0.26	318.8953	2.7327	2.6721	2.6121	663.2885		
	1102.55	313.7638	2.4694	1059.4978	61.5288	0.2583	316.5375	2.9651	2.7435	2.7715	663.788		
	1102.7	313.9035	2.4699	1059.6478	67.0382	0.2584	316.1852	3.1171	2.7914	2.9258	656.8088		
	1102.8501	313.6748	2.4499	1059.7878	70.9119	0.2578	317.1153	3.1197	2.7868	2.9928	652.6327		
	1103	313.1945	2.4167	1059.9115	72.7584	0.2634	320.0049	2.9765	2.7406	2.974	654.05		
	1103.15	312.58	2.3913	1060.0472	70.1819	0.2788	323.4079	2.7751	2.6482	2.8407	659.4167		
	1103.3	312.337	2.3962	1060.1971	62.8209	0.2982	325.8024	2.6668	2.5385	2.6333	668.0074		
	1103.45	312.6915	2.4107	1060.3472	58.3032	0.3094	327.4476	2.6887	2.4858	2.5091	675.4106		
	1103.6001	312.9815	2.3927	1060.4971	62.2836	0.3002	327.7956	2.6942	2.4913	2.5628	677.4788		
	1103.75	312.4653	2.3402	1060.6471	65.3504	0.2796	327.2961	2.5563	2.479	2.6582	677.2156		
	1103.9	311.4008	2.3	1060.797	61.3267	0.2675	326.9065	2.4064	2.4017	2.6101	678.0737		
	1104.05	310.2101	2.2916	1060.947	56.4667	0.2618	326.4843	2.3796	2.278	2.4222	676.324		
	1104.2	308.9778	2.2914	1061.0819	54.7099	0.2539	326.387	2.4165	2.188	2.2601	671.6406		
	1104.3501	308.2026	2.2885	1061.2137	53.5581	0.2463	326.6405	2.404	2.1491	2.1991	671.5628		
	1104.5	308.5437	2.2918	1061.3636	50.1213	0.2427	326.5954	2.3064	2.1168	2.1642	677.1443		
	1104.65	309.9847	2.3082	1061.5137	47.4391	0.245	326.1304	2.2715	2.1077	2.1541	681.2596		
	1104.8	311.5049	2.3235	1061.6573	46.8114	0.2507	324.9879	2.3718	2.1314	2.2172	680.7921		
	1104.95	312.2449	2.3253	1061.7847	47.8219	0.2529	323.0374	2.4571	2.1542	2.292	676.7989		
	1105.1001	312.4138	2.3155	1061.9136	47.3323	0.2487	321.5273	2.4024	2.1315	2.2789	672.6879		
	1105.25	312.4422	2.3041	1062.0635	42.9107	0.2445	321.0208	2.2629	2.0897	2.2221	669.1507		
	1105.4	312.5199	2.2967	1062.2134	44.7038	0.2435	321.5691	2.134	2.0632	2.1779	666.1494		
	1105.55	312.7113	2.2924	1062.3584	47.1718	0.2439	322.0901	2.0555	2.0338	2.1483	665.329		
	1105.7	312.9014	2.2895	1062.4873	44.7667	0.2465	320.8398	2.0916	2.0089	2.1174	668.2943		
	1105.8501	312.782	2.2811	1062.6134	42.725	0.2484	322.6722	2.1903	1.9811	2.0651	671.1542		
	1106	312.1722	2.2575	1062.7633	43.1589	0.2456	324.6729	2.1916	1.9322	1.9885	673.204		
