~VERSION	INFORMATION												
	VERS.	2	:	CWLS	LOG	ASCII	STANDARD	-	VERSION	2			
	WRAP.	NO	:	ONE	LINE	PER	DEPTH	STEP					
#													
~Well	Information	Section											
#MNEM	.UNIT	DATA	DESCRIPTION										
#-----	-----	--------	--------------										
	STRT	.M	410	:	START	DEPTH							
	STOP	.M	2720	:	END	DEPTH							
	STEP	.M	0.15	:	INCREMENT	DEPTH							
	NULL	.	-999.25	:	NULL	VALUE							
	COMP	.	:										
	WELL	.	XXXX	:	WELL	NAME							
	EKB	.M	0	:	KELLY	BUSHING	ELEVATION						
	EGL	.M	0	:	GROUND	LEVEL	ELEVATION						
	FLD	.	:										
	LOC	.	X	=	0	Y	=	0.0000:	WELL	LOCATION			
	PROV	.	:										
	SRVC	.	:										
	PROV	.	:										
	DATE	.	:										
	UWI	.	Unknown	:	UNIQUE	WELL	ID						
	API	.	:										
#													
~Curve	Information	Section											
#MNEM	.UNIT	Curve	#DESCRIPTION										
#-----	-----	----	--------------										
	DEPTH	.M	:	1	Name	=	Domain	Curve	-	Type	=	DEPTH	
	CALI	.mm	:	2	Name	=	Caliper_1	-	Type	=	Caliper		
	RHOB	.g/cc	:	3	Name	=	Density_3	-	Type	=	Density		
	UNKNOWN	.ft	:	4	Name	=	Depth_TVD	-	Type	=	Depth		
	GR	.API	:	5	Name	=	Gamma	Ray_1	-	Type	=	Gamma	Ray
	NPHI	.v/v	:	6	Name	=	Neutron	Porosity_1	-	Type	=	Neutron	Porosity
	DT	.us/m	:	7	Name	=	P-wave_1	-	Type	=	P-wave		
	UNKNOWN	.b/e	:	8	Name	=	Photoelectric_1	-	Type	=	Photoelectric		
	RES	.ohm-ft	:	9	Name	=	Resistivity	-	Type	=	Resistivity		
	RES	.ohm-m	:	10	Name	=	Resistivity_1	-	Type	=	Resistivity		
	SDT	.us/m	:	11	Name	=	S-wave_1	-	Type	=	S-wave		
~A	(ASCII	LOG	DATA)										
# ...
	504.35	-999.25	-999.25	-999.25	-999.25	1.4266	510.8721	-999.25	-999.25	-999.25	826.4469		
	504.5	-999.25	-999.25	-999.25	-999.25	1.3422	510.2606	-999.25	-999.25	-999.25	816.6292		
	504.65	-999.25	-999.25	-999.25	-999.25	1.2627	509.2727	-999.25	-999.25	-999.25	809.496		
	504.8	-999.25	-999.25	-999.25	-999.25	1.1847	506.1161	11.4305	-999.25	-999.25	846.2404		
	504.95	-999.25	-999.25	-999.25	-999.25	1.1059	502.5858	11.5505	-999.25	-999.25	920.9393		
	505.1	-999.25	-999.25	-999.25	-999.25	1.0562	500.464	11.5425	-999.25	-999.25	920.9393		
	505.25	-999.25	-999.25	-999.25	-999.25	1.0497	499.4306	11.531	-999.25	-999.25	920.9393		
	505.4	-999.25	-999.25	-999.25	-999.25	1.0255	498.6021	11.5265	-999.25	-999.25	920.9393		
	505.55	-999.25	-999.25	-999.25	-999.25	0.9977	501.4487	11.3782	-999.25	-999.25	920.9393		
	505.7	319.5948	-999.25	-999.25	-999.25	0.9924	504.5567	11.1286	-999.25	-999.25	923.0004		
	505.85	319.7984	-999.25	-999.25	-999.25	0.9599	502.7608	11.0515	-999.25	-999.25	931.2677		
	506	319.8698	0.0949	-999.25	-999.25	0.8518	494.8369	11.2013	-999.25	-999.25	939.5363		
	506.15	319.9799	0.2304	-999.25	-999.25	0.7427	478.0801	11.3512	-999.25	-999.25	943.659		
	506.3	320.4492	0.2226	-999.25	-999.25	0.7487	458.6002	11.41	-999.25	-999.25	940.4018		
	506.45	320.9799	0.1263	-999.25	-999.25	0.8266	442.7033	11.4508	-999.25	-999.25	964.3694		
	506.6	321.1494	0.1132	-999.25	-999.25	0.8629	426.2575	11.467	-999.25	-999.25	930.7047		
	506.75	321.0312	0.2508	-999.25	-999.25	0.7888	415.4393	11.4418	-999.25	-999.25	937.5581		
	506.9	320.8863	0.4073	-999.25	-999.25	0.7158	410.0477	11.4076	-999.25	-999.25	926.6069		
	507.05	320.7906	0.449	-999.25	-999.25	0.6953	407.0766	11.4168	-999.25	-999.25	943.9859		
	507.2	320.5775	0.355	-999.25	-999.25	0.717	410.2228	11.4552	-999.25	-999.25	961.3683		
	507.35	320.3372	0.2476	-999.25	-999.25	0.7261	415.5842	11.4444	-999.25	-999.25	975.9739		
	507.5	320.2068	0.1086	-999.25	-999.25	0.7067	415.9093	11.4736	-999.25	-999.25	954.3522		
	507.65	320.1681	0.1708	-999.25	-999.25	0.716	410.9253	11.5678	-999.25	-999.25	939.2136		
	507.8	320.109	0.1708	-999.25	-999.25	0.7623	400.7922	11.5602	-999.25	-999.25	939.2966		
	507.95	319.9476	0.1708	-999.25	-999.25	0.836	398.1419	11.4002	-999.25	-999.25	946.7051		
	508.1	319.8173	0.1751	-999.25	-999.25	0.909	397.4642	11.2564	-999.25	-999.25	951.9305		
	508.25	319.9424	0.3334	-999.25	-999.25	0.9245	398.342	11.2254	-999.25	-999.25	962.3899		
	508.4	320.0857	0.3969	-999.25	-999.25	0.8596	399.959	11.2609	-999.25	-999.25	970.5618		
	508.55	320.2019	0.3932	-999.25	-999.25	0.7915	406.3801	11.473	-999.25	-999.25	963.0223		
	508.7	320.3865	0.3961	-999.25	-999.25	0.7539	423.147	11.7192	-999.25	-999.25	948.6964		
	508.85	320.508	0.3676	-999.25	-999.25	0.7227	430.9137	11.8366	-999.25	-999.25	936.2933		
	509	320.486	0.3161	-999.25	-999.25	0.726	432.0502	11.8955	-999.25	-999.25	916.5724		
	509.15	320.3568	0.2574	-999.25	-999.25	0.7885	428.4442	11.911	-999.25	-999.25	896.22		
	509.3	320.1847	0.1912	-999.25	-999.25	0.8156	418.9001	11.8273	-999.25	-999.25	892.9788		
	509.45	319.9892	0.2025	-999.25	-999.25	0.7798	410.2468	11.6548	-999.25	-999.25	876.8514		
	509.6	319.9263	0.2932	-999.25	-999.25	0.7986	401.8705	11.5206	-999.25	-999.25	859.6307		
	509.75	319.9977	0.3093	-999.25	-999.25	0.8233	393.6795	11.4918	-999.25	-999.25	844.013		
	509.9	319.9966	0.1625	-999.25	-999.25	0.7654	387.1211	11.4034	-999.25	-999.25	824.5097		
	510.05	319.9179	0.0558	-999.25	-999.25	0.7497	384.6118	11.2852	-999.25	-999.25	814.1891		
	510.2	319.9319	0.0398	-999.25	-999.25	0.79	390.0994	11.2303	-999.25	-999.25	807.8026		
	510.35	320.0261	0.0398	-999.25	-999.25	0.8368	395.5351	11.1509	-999.25	-999.25	811.6396		
	510.5	320.0216	0.0398	-999.25	-999.25	0.8602	399.0572	11.0992	-999.25	-999.25	814.4009		
	510.65	319.9011	0.0398	-999.25	-999.25	0.8595	408.4401	11.1886	-999.25	-999.25	817.6862		
	510.8	319.8098	0.0944	-999.25	-999.25	0.8628	421.3419	11.347	-999.25	-999.25	803.4672		
	510.95	319.8474	0.1353	-999.25	-999.25	0.9048	432.0682	11.423	-999.25	-999.25	808.7947		
	511.1	319.9774	0.1389	-999.25	-999.25	0.9698	441.1417	11.4154	-999.25	-999.25	825.2593		
	511.25	320.052	0.1828	-999.25	-999.25	0.9773	448.6866	11.4228	-999.25	-999.25	838.7286		
	511.4	319.9566	0.2566	-999.25	-999.25	0.9114	454.9948	11.4458	-999.25	-999.25	845.8223		
	511.55	319.7588	0.2664	-999.25	-999.25	0.8515	459.6729	11.4791	-999.25	-999.25	849.27		
	511.7	319.5932	0.2144	-999.25	-999.25	0.8713	461.5027	11.5318	-999.25	-999.25	851.5535		
	511.85	319.4712	0.1695	-999.25	-999.25	0.9481	464.4486	11.5573	-999.25	-999.25	854.3566		
	512	319.4033	0.1869	-999.25	-999.25	1.0029	468.8211	11.5049	-999.25	-999.25	856.3494		
	512.15	319.5222	0.2607	-999.25	-999.25	1.0426	474.1851	11.4112	-999.25	-999.25	857.524		
	512.3	319.8408	0.407	-999.25	-999.25	1.0717	480.8354	11.3323	-999.25	-999.25	856.9589		
	512.45	320.1742	0.5867	-999.25	-999.25	1.001	485.2857	11.3292	-999.25	-999.25	861.5513		
	512.6	320.7345	0.3387	-999.25	-999.25	0.884	484.8999	11.3789	-999.25	-999.25	873.9177		
	512.75	321.4598	0.0865	-999.25	-999.25	0.8534	481.039	11.2853	-999.25	-999.25	879.545		
	512.9	321.6368	0.0865	-999.25	-999.25	0.9272	473.7173	11.0803	-999.25	-999.25	871.8613		
	513.05	321.2256	0.0865	-999.25	-999.25	1.0189	462.4334	11.0453	-999.25	-999.25	862.3431		
	513.2	320.9063	0.0865	-999.25	-999.25	1.0335	450.3882	11.1677	-999.25	-999.25	862.5545		
	513.35	320.7964	0.0865	-999.25	-999.25	0.976	438.4282	11.2865	-999.25	-999.25	859.3461		
	513.5	320.6696	0.1284	-999.25	-999.25	0.9132	426.8969	11.4416	-999.25	-999.25	839.9103		
	513.65	320.612	0.2876	-999.25	-999.25	0.8998	423.8622	11.6232	-999.25	-999.25	821.7167		
	513.8	320.6796	0.6034	-999.25	-999.25	0.9386	429.7498	11.6369	-999.25	-999.25	835.1834		
	513.95	320.7364	0.9336	-999.25	-999.25	0.9535	433.9483	11.4064	-999.25	-999.25	886.8942		
	514.1	320.7661	1.0779	-999.25	-999.25	0.9224	433.4156	11.1178	-999.25	-999.25	963.0992		
	514.25	320.8716	1.094	-999.25	30.0195	0.9056	430.2492	10.9344	-999.25	-999.25	1088.5281		
	514.4	321.107	1.1114	-999.25	31.3609	0.9108	431.3656	10.8187	-999.25	-999.25	1209.5824		
	514.55	321.8755	1.1307	-999.25	31.1764	0.9077	437.3731	10.723	-999.25	-999.25	1261.5852		
	514.7	323.4462	1.0283	-999.25	29.7691	0.8834	442.9031	10.7114	-999.25	-999.25	1287.8794		
	514.85	324.9232	0.7387	-999.25	28.6257	0.8477	445.3823	10.8172	-999.25	-999.25	1266.6853		
	515	325.5317	0.3919	-999.25	26.2852	0.8311	444.9842	10.9599	-999.25	-999.25	1184.7655		
	515.15	325.64	0.2065	-999.25	24.5861	0.8571	446.4979	11.0553	-999.25	-999.25	1081.1746		
	515.3	325.6941	0.1895	-999.25	23.018	0.8981	444.6989	11.0753	-999.25	-999.25	1081.1746		
	515.45	325.78	0.1758	-999.25	22.3868	0.874	436.8303	11.0151	-999.25	-999.25	1081.1746		
	515.6	325.444	0.123	-999.25	22.5268	0.7581	427.7086	10.9168	-999.25	-999.25	1086.2863		
	515.75	324.3276	0.1767	-999.25	22.5203	0.6656	423.9753	10.8627	-999.25	-999.25	1098.233		
	515.9	323.1395	0.4271	-999.25	23.6245	0.6908	425.8837	10.8914	-999.25	-999.25	1058.3175		
	516.05	322.8267	0.6026	-999.25	25.8278	0.7894	432.0715	10.9512	-999.25	-999.25	1013.4188		
	516.2	322.9221	0.4607	-999.25	25.3431	0.8487	433.0373	10.9359	-999.25	-999.25	927.9857		
	516.35	322.342	0.2475	-999.25	26.629	0.8328	436.9269	10.919	0.3559	3.6468	901.9105		
	516.5	321.5139	0.158	-999.25	25.4037	0.7903	438.225	11.0705	0.3288	3.3861	878.6866		
	516.65	320.9662	0.0652	-999.25	23.4737	0.7671	434.4801	11.276	0.3501	3.4074	865.0864		
	516.8	320.6111	0.0082	-999.25	22.0384	0.7645	428.1173	11.3602	0.3389	3.5035	847.2913		
	516.95	320.3778	0.0082	-999.25	25.6315	0.7701	417.4157	11.3838	0.3466	3.1122	824.0182		
	517.1	320.2385	0.0082	-999.25	26.1987	0.7759	406.7791	11.4237	0.3999	2.436	793.8		
	517.25	320.2471	0.0087	-999.25	26.168	0.7765	400.2182	11.3641	0.4141	2.7372	770.6732		
	517.4	320.2989	0.0155	-999.25	25.871	0.8062	418.5418	11.194	0.4932	2.9944	752.5568		
	517.55	320.2475	0.0155	-999.25	23.5382	0.919	410.8599	11.0978	0.5493	678.8805	714.1801		
	517.7	320.2263	0.0155	-999.25	22.7619	1.0203	396.1751	11.1477	0.5916	20249.9238	718.9123		
