~VERSION	INFORMATION												
	VERS.	2	:	CWLS	LOG	ASCII	STANDARD	-	VERSION	2			
	WRAP.	NO	:	ONE	LINE	PER	DEPTH	STEP					
#													
~Well	Information	Section											
#MNEM	.UNIT	DATA	DESCRIPTION										
#-----	-----	--------	--------------										
	STRT	.M	410	:	START	DEPTH							
	STOP	.M	2720	:	END	DEPTH							
	STEP	.M	0.15	:	INCREMENT	DEPTH							
	NULL	.	-999.25	:	NULL	VALUE							
	COMP	.	:										
	WELL	.	XXXX	:	WELL	NAME							
	EKB	.M	0	:	KELLY	BUSHING	ELEVATION						
	EGL	.M	0	:	GROUND	LEVEL	ELEVATION						
	FLD	.	:										
	LOC	.	X	=	0	Y	=	0.0000:	WELL	LOCATION			
	PROV	.	:										
	SRVC	.	:										
	PROV	.	:										
	DATE	.	:										
	UWI	.	Unknown	:	UNIQUE	WELL	ID						
	API	.	:										
#													
~Curve	Information	Section											
#MNEM	.UNIT	Curve	#DESCRIPTION										
#-----	-----	----	--------------										
	DEPTH	.M	:	1	Name	=	Domain	Curve	-	Type	=	DEPTH	
	CALI	.mm	:	2	Name	=	Caliper_1	-	Type	=	Caliper		
	RHOB	.g/cc	:	3	Name	=	Density_3	-	Type	=	Density		
	UNKNOWN	.ft	:	4	Name	=	Depth_TVD	-	Type	=	Depth		
	GR	.API	:	5	Name	=	Gamma	Ray_1	-	Type	=	Gamma	Ray
	NPHI	.v/v	:	6	Name	=	Neutron	Porosity_1	-	Type	=	Neutron	Porosity
	DT	.us/m	:	7	Name	=	P-wave_1	-	Type	=	P-wave		
	UNKNOWN	.b/e	:	8	Name	=	Photoelectric_1	-	Type	=	Photoelectric		
	RES	.ohm-ft	:	9	Name	=	Resistivity	-	Type	=	Resistivity		
	RES	.ohm-m	:	10	Name	=	Resistivity_1	-	Type	=	Resistivity		
	SDT	.us/m	:	11	Name	=	S-wave_1	-	Type	=	S-wave		
~A	(ASCII	LOG	DATA)										
# ...
	1239.95	305.5968	2.3306	1192.0166	56.0929	0.2948	335.9221	2.7257	2.0437	2.2929	690.1018		
	1240.1001	308.4208	2.2783	1192.144	37.7711	0.2878	333.7736	2.4114	1.9634	2.1631	681.7825		
	1240.25	311.2355	2.2322	1192.3041	30.9259	0.2821	327.179	2.0066	1.8789	2.044	677.7053		
	1240.4	311.7303	2.2032	1192.5017	29.6875	0.2769	325.2249	1.9357	1.7729	1.9591	674.9211		
	1240.55	309.3183	2.1818	1192.6261	25.8589	0.2682	322.9757	2.0323	1.6709	1.7751	666.2228		
	1240.7	306.0023	2.1734	1192.776	23.5378	0.2642	321.6692	2.1518	1.5928	1.6513	664.8271		
	1240.8501	303.3174	2.1728	1192.9261	23.6434	0.2765	322.2694	2.2156	1.5393	1.5654	654.822		
	1241	302.442	2.1676	1193.076	23.4287	0.2989	323.5761	2.1706	1.5159	1.5475	661.4985		
	1241.15	305.6425	2.1555	1193.2241	24.2645	0.3041	326.6689	1.9594	1.4787	1.5301	666.8477		
	1241.3	308.7563	2.1551	1193.3483	24.6087	0.3029	328.3816	1.9032	1.4706	1.5327	671.6077		
	1241.45	312.0717	2.1618	1193.4982	24.5764	0.3062	329.832	1.9298	1.4693	1.547	678.6083		
	1241.6001	313.2846	2.1673	1193.6482	22.6202	0.3041	330.1466	1.9992	1.4667	1.5536	684.6185		
	1241.75	313.3346	2.1635	1193.7981	22.1545	0.2812	329.5999	1.9995	1.4641	1.5536	683.6973		
	1241.9	313.4055	2.1568	1193.9501	20.5429	0.2585	328.9079	1.9162	1.4589	1.5491	680.9007		
	1242.05	313.7063	2.153	1194.0732	23.2389	0.2527	328.4087	1.7921	1.4596	1.5386	679.8378		
	1242.2	313.73	2.1527	1194.2227	23.7865	0.2612	328.2816	1.7243	1.4551	1.5348	678.8214		
	1242.3501	311.7668	2.1537	1194.3727	22.6071	0.2705	331.9189	1.7601	1.4557	1.5365	677.7925		
	1242.5	307.6691	2.1556	1194.5227	22.6512	0.2663	332.9372	1.8348	1.4655	1.5396	677.3469		
	1242.65	304.2212	2.1558	1194.6726	24.6749	0.2612	333.9769	1.8818	1.4655	1.5401	676.6772		
	1242.8	303.1776	2.1536	1194.7977	26.4674	0.2702	335.0437	1.8942	1.4729	1.5446	675.4568		
	1242.95	304.1141	2.1549	1194.9451	25.3856	0.2748	332.3425	1.9269	1.4858	1.5559	675.4164		
	1243.1001	305.6162	2.1627	1195.0951	27.4927	0.2685	332.2313	1.9849	1.4996	1.5769	674.4471		
	1243.25	306.8893	2.169	1195.245	23.1151	0.2612	331.3532	2.0154	1.5167	1.605	672.5231		
	1243.4	309.6543	2.1732	1195.395	22.5442	0.2497	331.0061	2.0417	1.5368	1.6267	672.0051		
	1243.55	311.6336	2.1804	1195.5449	24.3548	0.2357	330.4436	2.0704	1.5553	1.6401	671.8198		
	1243.7	310.8454	2.1919	1195.6949	24.9861	0.2327	329.09	2.107	1.5761	1.666	669.2849		
	1243.8501	308.551	2.2009	1195.8447	26.7403	0.2369	326.8087	2.1472	1.6091	1.7256	666.2637		
	1244	307.9817	2.2045	1195.9949	26.7652	0.2401	323.9162	2.1484	1.6458	1.7689	662.3806		
	1244.15	308.5954	2.201	1196.1447	27.8817	0.242	321.3927	2.1092	1.6709	1.7928	656.9484		
	1244.3	308.5456	2.1901	1196.2947	26.6286	0.2497	319.5207	2.091	1.6911	1.7929	649.8198		
	1244.45	308.2122	2.1778	1196.4446	28.7896	0.2599	318.6407	2.1083	1.7009	1.7838	642.3591		
	1244.6001	309.6191	2.1736	1196.5946	29.1526	0.2657	318.3903	2.0986	1.7038	1.7722	636.575		
	1244.75	311.8987	2.1832	1196.7291	26.7668	0.2641	318.9229	2.0684	1.7084	1.7688	633.274		
	1244.9	313.2276	2.2033	1196.8723	25.8164	0.2575	320.7783	2.1136	1.7142	1.7691	632.0596		
	1245.05	313.408	2.2218	1197.0223	27.3136	0.255	317.5247	2.2352	1.7431	1.8395	634.1011		
	1245.2	313.0614	2.231	1197.1722	27.9917	0.2587	315.6312	2.3592	1.7957	1.9783	638.4113		
	1245.3501	312.6623	2.2319	1197.3223	27.968	0.2615	316.9382	2.4068	1.8426	2.0789	644.5845		
	1245.5	312.4675	2.2187	1197.4554	28.1492	0.2615	317.6725	2.2979	1.8518	2.0748	652.5087		
	1245.65	312.3623	2.1924	1197.5951	28.586	0.2627	319.3117	2.1451	1.7997	2.075	657.1295		
	1245.8	311.9136	2.1679	1197.745	28.155	0.2652	320.4537	2.1183	1.73	1.955	653.701		
	1245.95	311.0994	2.153	1197.895	26.6534	0.268	320.5114	2.1769	1.6267	1.6936	642.7608		
	1246.1001	310.2681	2.1445	1198.0449	23.9516	0.271	321.2727	2.2151	1.5312	1.5364	629.8445		
	1246.25	309.5838	2.1382	1198.1803	21.6038	0.2716	320.3907	2.2003	1.4903	1.5206	622.1927		
	1246.4	309.4736	2.1313	1198.3176	21.4291	0.2712	320.0497	2.1537	1.474	1.5246	622.6354		
	1246.55	310.8208	2.1297	1198.4677	23.5508	0.2756	322.5815	2.1231	1.4648	1.5033	629.1885		
	1246.7	312.8648	2.1413	1198.6177	25.6908	0.2809	325.2132	2.1195	1.4686	1.4861	639.1633		
	1246.8501	314.3125	2.1592	1198.7676	25.4582	0.2796	326.9588	2.1113	1.4925	1.5234	651.8751		
	1247	314.9311	2.169	1198.9176	23.7877	0.2761	327.9431	2.0879	1.5177	1.5854	663.7029		
	1247.15	313.9322	2.1656	1199.0674	22.4288	0.281	329.4801	2.0433	1.5311	1.6306	668.6048		
	1247.3	311.2278	2.1595	1199.2175	21.6872	0.2933	331.4182	1.9758	1.5372	1.6398	667.7563		
	1247.45	308.1389	2.1671	1199.3673	22.1581	0.301	333.7061	1.9525	1.5372	1.5967	664.5387		
	1247.6001	305.2638	2.1965	1199.5175	22.5411	0.2977	335.6369	2.138	1.5552	1.5625	660.6456		
	1247.75	302.732	2.2338	1199.6674	21.8362	0.2889	335.0512	2.5452	1.6196	1.5968	658.6985		
	1247.9	301.8312	2.2528	1199.8173	22.288	0.29	333.4249	2.7938	1.7285	1.7371	660.9772		
	1248.05	304.3076	2.2546	1199.9673	22.1199	0.3024	330.8705	2.6272	1.8346	1.9376	663.6436		
	1248.2	308.5829	2.2491	1200.1102	23.8875	0.3065	327.3095	2.2595	1.9182	2.1041	664.479		
	1248.3501	311.2856	2.2405	1200.2462	28.1908	0.2992	323.0018	2.0604	1.964	2.179	661.7722		
	1248.5	312.2517	2.2353	1200.3961	31.2535	0.2958	318.9454	2.0625	1.9791	2.1927	653.6163		
	1248.65	312.2707	2.2347	1200.5461	32.8025	0.3053	315.4889	2.0534	1.9825	2.1735	640.35		
	1248.8	311.3889	2.2357	1200.696	34.6797	0.3176	312.9577	2.0421	1.973	2.1509	625.668		
	1248.95	310.1826	2.2377	1200.8392	33.471	0.3152	310.3777	2.0756	1.9557	2.1256	610.1096		
	1249.1001	309.1664	2.2384	1200.9692	30.3292	0.2996	308.5675	2.1424	1.9476	2.1144	602.0995		
	1249.25	308.4662	2.2325	1201.1193	29.0347	0.2837	308.1008	2.1616	1.9377	2.0959	600.7412		
	1249.4	306.952	2.225	1201.2692	30.9231	0.2738	308.245	2.1349	1.9101	2.067	601.3404		
	1249.55	305.0812	2.2279	1201.4193	32.6889	0.2663	308.5804	2.1356	1.8718	2.0278	600.3438		
	1249.7	304.6003	2.2413	1201.5691	31.5049	0.2546	310.3644	2.166	1.8412	1.9847	602.1422		
	1249.8501	306.2127	2.2544	1201.7192	30.2624	0.2354	313.4376	2.169	1.8061	1.8926	600.4296		
	1250	307.6853	2.2569	1201.869	27.9074	0.2293	317.161	2.1633	1.7159	1.6907	599.0705		
	1250.15	307.1575	2.2596	1202.0189	24.5772	0.2326	321.5845	2.1855	1.6251	1.5661	606.3326		
	1250.3	306.2138	2.2603	1202.1689	26.9519	0.2342	326.3467	2.2027	1.5896	1.6089	631.286		
	1250.45	306.258	2.2575	1202.3188	22.6719	0.2317	330.493	2.2216	1.5948	1.6618	644.8787		
	1250.6001	307.0743	2.2454	1202.469	22.3043	0.2283	333.554	2.2196	1.5938	1.643	654.3234		
	1250.75	308.005	2.2109	1202.6188	24.8593	0.2345	333.4612	2.1134	1.5901	1.6457	663.5635		
	1250.9	308.2635	2.178	1202.7681	26.2591	0.2491	330.847	1.9707	1.6209	1.7257	671.2798		
	1251.05	307.8364	2.1669	1202.8987	24.7356	0.2685	327.9721	1.9089	1.6571	1.8523	668.7028		
	1251.2	307.5104	2.1673	1203.0485	24.8237	0.2835	325.3217	1.9341	1.679	1.8571	653.7691		
	1251.3501	307.7693	2.1677	1203.1993	24.844	0.2717	320.8355	1.9762	1.6503	1.7832	640.4574		
	1251.5	308.9143	2.1702	1203.351	22.2234	0.2508	320.7707	1.9588	1.604	1.6506	630.5314		
	1251.65	310.4117	2.1807	1203.501	21.7707	0.2481	321.9868	1.9183	1.5574	1.6074	622.6765		
	1251.8	310.7177	2.1997	1203.6254	22.4214	0.2604	327.3536	1.9338	1.5286	1.5948	619.188		
	1251.95	309.4125	2.2272	1203.7744	23.355	0.2753	331.6301	2.0483	1.5115	1.58	624.5728		
	1252.1001	307.0711	2.2379	1203.9243	23.8786	0.2754	334.7249	2.1485	1.4949	1.5651	634.3887		
	1252.25	304.8918	2.2234	1204.0743	24.7183	0.2635	335.4802	2.1857	1.4745	1.5504	641.6984		
	1252.4	303.8161	2.1986	1204.2242	25.151	0.2608	334.8828	2.1925	1.4696	1.5659	647.7745		
	1252.55	305.0272	2.1694	1204.3511	23.2499	0.2701	334.1407	2.1429	1.4662	1.5844	651.6534		
	1252.7	308.7611	2.1467	1204.4979	23.7111	0.2739	332.3598	2.0647	1.4486	1.5194	646.535		
	1252.8501	312.4747	2.138	1204.6478	21.445	0.2733	331.6183	2.0323	1.4648	1.4942	643.5775		
	1253	312.5864	2.1367	1204.798	25.0032	0.2731	331.7083	1.9893	1.4897	1.5255	641.5095		
	1253.15	311.8999	2.1413	1204.9478	28.9291	0.2766	331.7499	1.9107	1.5457	1.5641	640.8027		
	1253.3	311.6877	2.1502	1205.0978	27.2484	0.2886	331.6563	1.8124	1.6183	1.6352	639.1788		
