~VERSION	INFORMATION												
	VERS.	2	:	CWLS	LOG	ASCII	STANDARD	-	VERSION	2			
	WRAP.	NO	:	ONE	LINE	PER	DEPTH	STEP					
#													
~Well	Information	Section											
#MNEM	.UNIT	DATA	DESCRIPTION										
#-----	-----	--------	--------------										
	STRT	.M	410	:	START	DEPTH							
	STOP	.M	2720	:	END	DEPTH							
	STEP	.M	0.15	:	INCREMENT	DEPTH							
	NULL	.	-999.25	:	NULL	VALUE							
	COMP	.	:										
	WELL	.	XXXX	:	WELL	NAME							
	EKB	.M	0	:	KELLY	BUSHING	ELEVATION						
	EGL	.M	0	:	GROUND	LEVEL	ELEVATION						
	FLD	.	:										
	LOC	.	X	=	0	Y	=	0.0000:	WELL	LOCATION			
	PROV	.	:										
	SRVC	.	:										
	PROV	.	:										
	DATE	.	:										
	UWI	.	Unknown	:	UNIQUE	WELL	ID						
	API	.	:										
#													
~Curve	Information	Section											
#MNEM	.UNIT	Curve	#DESCRIPTION										
#-----	-----	----	--------------										
	DEPTH	.M	:	1	Name	=	Domain	Curve	-	Type	=	DEPTH	
	CALI	.mm	:	2	Name	=	Caliper_1	-	Type	=	Caliper		
	RHOB	.g/cc	:	3	Name	=	Density_3	-	Type	=	Density		
	UNKNOWN	.ft	:	4	Name	=	Depth_TVD	-	Type	=	Depth		
	GR	.API	:	5	Name	=	Gamma	Ray_1	-	Type	=	Gamma	Ray
	NPHI	.v/v	:	6	Name	=	Neutron	Porosity_1	-	Type	=	Neutron	Porosity
	DT	.us/m	:	7	Name	=	P-wave_1	-	Type	=	P-wave		
	UNKNOWN	.b/e	:	8	Name	=	Photoelectric_1	-	Type	=	Photoelectric		
	RES	.ohm-ft	:	9	Name	=	Resistivity	-	Type	=	Resistivity		
	RES	.ohm-m	:	10	Name	=	Resistivity_1	-	Type	=	Resistivity		
	SDT	.us/m	:	11	Name	=	S-wave_1	-	Type	=	S-wave		
~A	(ASCII	LOG	DATA)										
# ...
	1973.4501	214.2761	2.5455	1923.8022	100.5631	0.2537	277.3208	3.1671	3.0777	3.0003	514.3393		
	1973.6001	215.0821	2.5437	1923.9523	95.6036	0.2448	274.072	3.0718	3.1961	3.1687	508.2542		
	1973.7501	215.5749	2.5312	1924.1022	90.3894	0.2271	271.7042	2.9646	3.4013	3.4888	502.2371		
	1973.9	215.1859	2.5302	1924.2522	89.0803	0.2217	271.55	2.9819	3.5717	3.6466	496.466		
	1974.05	214.7206	2.546	1924.402	90.4708	0.2243	272.8676	3.0381	3.6524	3.7115	493.2284		
	1974.2001	214.5387	2.5655	1924.552	89.5171	0.2219	273.5026	3.0449	3.7412	3.8035	493.7959		
	1974.3501	214.4133	2.5684	1924.702	85.8851	0.2157	275.1033	2.9674	3.8356	3.933	494.8232		
	1974.5001	214.1922	2.5597	1924.8521	83.588	0.2138	272.325	2.8918	3.883	3.8588	494.3854		
	1974.65	214.062	2.5541	1925.0018	87.6471	0.2192	266.959	2.8685	3.9531	3.9314	494.4607		
	1974.8	214.168	2.5503	1925.1519	86.4652	0.2238	264.315	2.8448	4.0558	4.2247	488.0992		
	1974.9501	214.4027	2.5356	1925.3019	83.3111	0.2217	262.802	2.8001	4.0337	4.1471	482.6814		
	1975.1001	214.543	2.523	1925.4518	84.0331	0.2153	262.5404	2.8097	3.969	3.9784	480.5947		
	1975.2501	214.4903	2.5329	1925.6025	81.4225	0.2024	263.2969	2.9357	3.9939	3.936	478.8655		
	1975.4	214.2779	2.5582	1925.7542	73.2923	0.1936	264.3466	3.1361	4.0161	4.1585	479.0325		
	1975.55	214.0234	2.5926	1925.9042	75.8076	0.2016	268.584	3.2468	3.8355	3.8741	484.7568		
	1975.7001	213.8711	2.6172	1926.0541	87.3443	0.2141	272.7107	3.147	3.8144	3.7517	493.6508		
	1975.8501	213.8462	2.5984	1926.2041	87.0451	0.2167	273.8335	2.9717	3.8164	3.8443	502.343		
	1976.0001	213.9043	2.5677	1926.3541	87.0866	0.2131	275.0865	2.938	3.7614	3.8738	511.32		
	1976.15	214.1016	2.5565	1926.5039	88.3879	0.2139	275.2666	2.9932	3.6241	3.7582	513.0569		
	1976.3	214.3479	2.5548	1926.6539	91.3339	0.2223	274.7854	3.0124	3.4412	3.4672	511.5695		
	1976.4501	214.5058	2.5551	1926.8038	93.7941	0.2368	273.156	2.9938	3.296	3.2309	508.1781		
	1976.6001	214.5586	2.5575	1926.9539	97.5696	0.2508	270.881	2.987	3.2499	3.1398	498.5261		
	1976.7501	214.6115	2.5603	1927.1038	97.7681	0.2564	274.422	3.0116	3.2588	3.203	499.1528		
	1976.9	215.0528	2.5703	1927.2539	92.0873	0.2442	282.3363	3.0288	3.2423	3.3278	513.5793		
	1977.05	215.5206	2.577	1927.4037	88.0202	0.2284	288.5428	3.0284	3.2608	3.2505	530.8547		
	1977.2001	215.5952	2.5725	1927.5537	92.1708	0.2276	293.733	3.0715	2.9793	2.8246	545.6119		
	1977.3501	215.3389	2.5676	1927.7036	102.3126	0.2472	297.559	3.151	2.8741	2.6461	555.5464		
	1977.5001	215.0095	2.5665	1927.8536	109.5487	0.2715	301.3324	3.1833	2.9286	2.7525	567.264		
	1977.65	214.7327	2.5618	1928.0037	108.0889	0.2814	303.2298	3.1877	2.9419	2.8247	578.7902		
	1977.8	214.5386	2.5569	1928.1536	107.5318	0.281	301.5349	3.197	2.8617	2.6722	577.178		
	1977.9501	214.3551	2.5556	1928.3036	108.2004	0.2826	297.9922	3.1803	2.7647	2.5269	564.5764		
	1978.1001	214.209	2.5534	1928.4534	109.5663	0.2847	294.7226	3.1483	2.7219	2.5324	558.3903		
	1978.2501	214.1896	2.5508	1928.6035	108.8452	0.2808	291.561	3.1418	2.7275	2.6169	560.898		
	1978.4	214.3096	2.5483	1928.7534	102.9401	0.2758	292.8099	3.1483	2.7199	2.6186	568.4374		
	1978.55	214.4587	2.5446	1928.9033	98.3211	0.2736	296.4317	3.1461	2.6713	2.5013	569.9598		
	1978.7001	214.5391	2.5493	1929.0532	98.6626	0.2704	299.0903	3.1506	2.6199	2.4106	572.0461		
	1978.8501	214.5611	2.5652	1929.2034	100.8386	0.2677	300.6076	3.1609	2.6344	2.4638	573.33		
	1979.0001	214.6354	2.5795	1929.3533	101.9727	0.2771	301.5869	3.1589	2.7281	2.6427	572.2457		
	1979.15	214.8441	2.5794	1929.5704	100.9485	0.2995	304.045	3.1334	2.851	2.7986	574.8741		
	1979.3	215.0418	2.5504	1929.7501	101.7214	0.3151	307.9875	3.0785	2.9301	2.8148	587.3983		
	1979.4501	214.9863	2.5001	1929.8733	102.9713	0.3056	310.1619	3.0398	2.9349	2.8247	598.2643		
	1979.6001	214.7523	2.4787	1929.9963	106.6814	0.2806	309.5774	3.1047	2.9497	2.8262	604.2007		
	1979.7501	214.6391	2.5091	1930.1193	110.9362	0.2734	308.4248	3.229	2.9678	2.7606	607.1455		
	1979.9	214.7763	2.5449	1930.2562	108.7273	0.299	308.8075	3.2773	2.9676	2.7075	601.9666		
	1980.05	214.9474	2.5354	1930.4061	102.2913	0.3258	303.9142	3.2305	2.9906	2.7195	592.5685		
	1980.2001	214.6703	2.4866	1930.5562	92.9804	0.3065	285.8667	3.1447	3.1799	3.0258	559.8239		
	1980.3501	214.1734	2.469	1930.7061	84.9585	0.2549	267.9409	3.0522	3.4264	3.4026	510.5442		
	1980.5001	214.0035	2.5035	1930.8562	82.715	0.2124	260.9301	2.9896	3.574	3.5753	483.9456		
	1980.65	214.0298	2.5415	1931.006	82.4478	0.1862	257.2953	3.0075	3.7282	3.7951	468.5996		
	1980.8	214.0585	2.5697	1931.1559	83.2313	0.1756	255.6931	3.0637	3.8767	4.0241	456.9993		
	1980.9501	214.0483	2.5854	1931.3059	82.8881	0.1733	255.3962	3.0339	3.989	4.1686	451.7444		
	1981.1001	214.0036	2.5833	1931.4559	81.6673	0.1731	256.8564	2.9222	4.0397	4.2396	449.4443		
	1981.2501	213.9409	2.5691	1931.6058	81.3145	0.1722	261.1406	2.8258	4.0652	4.3077	457.892		
	1981.4	213.9552	2.5551	1931.7557	78.4974	0.173	266.0918	2.7683	4.061	4.3759	474.7116		
	1981.55	214.1237	2.5461	1931.9058	75.0641	0.1828	271.4539	2.7453	3.9933	4.365	489.9161		
	1981.7001	214.373	2.5401	1932.0557	71.0372	0.2046	279.3795	2.7895	3.8056	4.1509	505.5939		
	1981.8501	214.5267	2.5399	1932.2058	72.0489	0.2278	286.215	2.9065	3.5073	3.6305	522.1063		
	1982.0001	214.5291	2.5447	1932.3557	82.3518	0.2415	287.7771	3.0642	3.2221	3.0815	536.6172		
	1982.15	214.4227	2.5508	1932.5057	88.2861	0.2472	287.4063	3.1799	3.0294	2.8596	538.9269		
	1982.3	214.257	2.5585	1932.6555	90.5228	0.2493	287.2601	3.1729	2.8214	2.6583	533.8304		
	1982.4501	214.2076	2.5635	1932.8057	95.9728	0.2501	288.0221	3.0801	2.6904	2.5279	532.3385		
	1982.6001	214.3061	2.5588	1932.9554	100.7439	0.2477	291.1101	3.051	2.6202	2.429	545.8689		
	1982.7501	214.2858	2.553	1933.1055	99.7294	0.2452	292.708	3.1534	2.6259	2.4234	554.1531		
	1982.9	214.1088	2.5559	1933.2554	98.9025	0.252	293.3452	3.3136	2.6636	2.5365	553.4886		
	1983.05	214.0438	2.5659	1933.4054	99.1997	0.2676	293.4022	3.402	2.6686	2.6214	556.7769		
	1983.2001	214.1807	2.5723	1933.5553	104.7047	0.2776	293.0197	3.3495	2.6074	2.4729	560.7161		
	1983.3501	214.41	2.5643	1933.7053	110.7477	0.2709	292.6277	3.2809	2.6184	2.3379	560.8568		
	1983.5001	214.5105	2.5581	1933.8555	111.2422	0.2584	292.4259	3.3098	2.7553	2.4516	552.0922		
	1983.65	214.4341	2.5604	1934.0051	109.2899	0.2501	289.1192	3.2857	2.9294	2.6937	543.1797		
	1983.8	214.2116	2.5588	1934.1553	104.039	0.2503	291.3249	3.1629	3.0598	2.9554	539.7094		
	1983.9501	213.9764	2.5508	1934.3052	100.4987	0.2606	286.7429	3.0216	3.1102	3.0218	534.507		
	1984.1001	213.8541	2.5441	1934.4552	99.9272	0.2658	278.8029	2.9684	3.157	2.9829	522.0925		
	1984.2501	213.8375	2.5423	1934.6051	98.7444	0.2443	265.5911	2.9453	3.2317	3.0149	502.5134		
	1984.4	213.8375	2.5487	1934.7551	98.6895	0.2101	261.2277	2.8592	3.3985	3.2218	488.765		
	1984.55	213.8375	2.5626	1934.9049	96.3353	0.1893	260.8373	2.7586	3.5424	3.6329	480.004		
	1984.7001	213.8375	2.5717	1935.0549	86.6022	0.1851	257.6744	2.7703	3.6898	3.8879	476.7574		
	1984.8501	213.8375	2.5738	1935.2069	83.9828	0.1943	261.9069	2.9003	3.7358	3.9841	480.1436		
	1985.0001	213.8375	2.5762	1935.3573	81.7892	0.2053	273.037	2.9725	3.7068	3.9001	499.7361		
	1985.15	213.8375	2.5755	1935.5073	83.2994	0.2198	287.0956	2.9816	3.6067	3.6378	518.409		
	1985.3	213.8545	2.5704	1935.6571	85.5155	0.2397	297.9932	3.0699	3.4913	3.4468	536.9924		
	1985.4501	213.9364	2.5734	1935.8073	93.2763	0.2614	305.5255	3.1954	3.2811	2.994	554.1032		
	1985.6001	214.0308	2.5743	1935.9573	99.3961	0.2794	303.2786	3.1632	3.0571	2.6952	563.2518		
	1985.7501	213.9967	2.5421	1936.1072	101.6042	0.2799	295.8459	3	3.0591	2.8062	548.2407		
	1985.9	213.8996	2.5022	1936.2572	103.4145	0.2571	283.732	2.8634	3.1337	2.9618	535.6464		
	1986.05	213.8483	2.5077	1936.407	100.7427	0.2324	279.0234	2.8519	3.2023	3.1351	521.1356		
	1986.2001	213.8382	2.5504	1936.557	93.547	0.2266	280.2689	2.9646	3.3096	3.3822	515.8228		
	1986.3501	213.8504	2.585	1936.707	89.6965	0.2404	290.1585	3.0857	3.3716	3.4729	520.6523		
	1986.5001	213.9495	2.5883	1936.8571	92.867	0.2723	300.3924	3.114	3.3439	3.3624	535.1405		
