~VERSION	INFORMATION												
	VERS.	2	:	CWLS	LOG	ASCII	STANDARD	-	VERSION	2			
	WRAP.	NO	:	ONE	LINE	PER	DEPTH	STEP					
#													
~Well	Information	Section											
#MNEM	.UNIT	DATA	DESCRIPTION										
#-----	-----	--------	--------------										
	STRT	.M	410	:	START	DEPTH							
	STOP	.M	2720	:	END	DEPTH							
	STEP	.M	0.15	:	INCREMENT	DEPTH							
	NULL	.	-999.25	:	NULL	VALUE							
	COMP	.	:										
	WELL	.	XXXX	:	WELL	NAME							
	EKB	.M	0	:	KELLY	BUSHING	ELEVATION						
	EGL	.M	0	:	GROUND	LEVEL	ELEVATION						
	FLD	.	:										
	LOC	.	X	=	0	Y	=	0.0000:	WELL	LOCATION			
	PROV	.	:										
	SRVC	.	:										
	PROV	.	:										
	DATE	.	:										
	UWI	.	Unknown	:	UNIQUE	WELL	ID						
	API	.	:										
#													
~Curve	Information	Section											
#MNEM	.UNIT	Curve	#DESCRIPTION										
#-----	-----	----	--------------										
	DEPTH	.M	:	1	Name	=	Domain	Curve	-	Type	=	DEPTH	
	CALI	.mm	:	2	Name	=	Caliper_1	-	Type	=	Caliper		
	RHOB	.g/cc	:	3	Name	=	Density_3	-	Type	=	Density		
	UNKNOWN	.ft	:	4	Name	=	Depth_TVD	-	Type	=	Depth		
	GR	.API	:	5	Name	=	Gamma	Ray_1	-	Type	=	Gamma	Ray
	NPHI	.v/v	:	6	Name	=	Neutron	Porosity_1	-	Type	=	Neutron	Porosity
	DT	.us/m	:	7	Name	=	P-wave_1	-	Type	=	P-wave		
	UNKNOWN	.b/e	:	8	Name	=	Photoelectric_1	-	Type	=	Photoelectric		
	RES	.ohm-ft	:	9	Name	=	Resistivity	-	Type	=	Resistivity		
	RES	.ohm-m	:	10	Name	=	Resistivity_1	-	Type	=	Resistivity		
	SDT	.us/m	:	11	Name	=	S-wave_1	-	Type	=	S-wave		
~A	(ASCII	LOG	DATA)										
# ...
	654.5	316.4678	2.128	636.9982	83.2795	0.4985	488.9071	2.0496	1.6002	1.7388	1297.9186		
	654.65	316.8277	2.2785	637.1367	86.053	0.4239	491.1265	2.4783	1.5463	1.586	1327.4999		
	654.8	317.0161	2.3548	637.2867	89.2409	0.4123	490.9744	2.7936	1.5128	1.486	1324.2201		
	654.95	317.3349	2.3755	637.4367	88.9349	0.4282	488.7438	3.0163	1.5034	1.4594	1364.3441		
	655.1	318.4456	2.3621	637.5753	87.6414	0.4471	484.1588	3.1068	1.5096	1.4696	1431.851		
	655.25	320.278	2.3327	637.6977	89.6104	0.4614	476.9043	3.0746	1.5379	1.4799	1477.0254		
	655.4	321.329	2.3049	637.8335	91.1612	0.4672	467.9656	2.9405	1.6015	1.5605	1516.8872		
	655.55	320.5169	2.2901	637.9835	92.2574	0.4696	455.6827	2.7235	1.6643	1.7223	1554.8999		
	655.7	319.15	2.2988	638.1334	91.4225	0.4702	440.9059	2.5383	1.6906	1.8273	1567.2867		
	655.85	318.6552	2.331	638.2833	87.8774	0.4518	434.0925	2.5315	1.6795	1.8355	1415.3395		
	656	318.7095	2.3563	638.4333	83.1056	0.4131	437.0256	2.6589	1.6354	1.7564	1181.2064		
	656.15	318.6437	2.3582	638.5833	77.7478	0.3754	443.1684	2.763	1.5723	1.6253	1114.2517		
	656.3	318.2723	2.3488	638.7315	73.5212	0.3497	451.95	2.8154	1.5277	1.5352	1187.8038		
	656.45	317.6133	2.3259	638.8639	68.0782	0.3351	461.899	2.836	1.5416	1.5535	1267.4525		
	656.6	316.8889	2.2861	638.9954	59.4456	0.3272	468.1796	2.7631	1.5992	1.6392	1336.3177		
	656.75	316.3649	2.2505	639.1454	51.3651	0.3206	468.2446	2.5467	1.6363	1.677	1428.7339		
	656.9	316.1684	2.2475	639.2953	49.3626	0.3235	464.3436	2.3156	1.6493	1.6645	1471.3684		
	657.05	316.429	2.283	639.4377	57.2386	0.351	454.9891	2.353	1.6824	1.6975	1396.6804		
	657.2	317.0417	2.3222	639.5631	71.0985	0.3951	440.4229	2.7034	1.7388	1.8153	1187.269		
	657.35	317.4662	2.3282	639.6918	83.7977	0.4198	423.8353	2.9997	1.7936	1.9145	1026.9852		
	657.5	317.3651	2.3197	639.8417	89.7077	0.4091	408.5803	2.988	1.7793	1.8511	991.0361		
	657.65	316.9348	2.3268	639.9917	85.437	0.38	396.5321	2.8393	1.7451	1.742	946.0614		
	657.8	316.4585	2.3417	640.1357	76.1985	0.3571	387.8303	2.7487	1.8058	1.8959	921.0403		
	657.95	316.0165	2.3539	640.2624	72.313	0.3552	388.2271	2.7525	1.8272	1.935	913.4355		
	658.1	315.7343	2.3638	640.3882	78.6125	0.3647	396.2823	2.8243	1.8297	1.932	906.6658		
	658.25	316.1328	2.368	640.5382	82.6102	0.3633	405.2107	2.9028	1.8299	1.9187	917.4922		
	658.4	317.1321	2.3617	640.6882	83.247	0.3568	408.3124	2.9197	1.8385	1.904	962.3627		
	658.55	317.6505	2.354	640.8337	81.8738	0.3618	407.4649	2.8468	1.8863	1.9627	1022.334		
	658.7	317.471	2.3497	640.9615	81.0792	0.3762	401.5521	2.7395	1.9223	2.0167	1013.389		
	658.85	317.1275	2.3482	641.0847	82.0889	0.3921	390.2021	2.7091	1.9387	2.0649	941.7393		
	659	316.7612	2.3489	641.2346	82.6115	0.4044	385.7433	2.775	1.9092	1.9793	913.3481		
	659.15	315.9301	2.3488	641.3846	85.1349	0.3842	386.3404	2.871	1.8136	1.6764	891.9862		
	659.3	315.4595	2.347	641.5345	92.1541	0.3438	390.0478	2.8972	1.692	1.4844	855.1088		
	659.45	315.2377	2.346	641.6845	86.4957	0.3126	397.8555	2.8271	1.6941	1.5936	889.3112		
	659.6	314.7359	2.3645	641.8345	81.2598	0.2711	406.6072	2.7349	1.7859	1.8261	941.5037		
	659.75	314.6591	2.4412	641.984	67.3871	0.2128	415.9149	2.7856	1.9567	2.1696	991.6788		
	659.9	315.1362	2.5504	642.1273	54.0321	0.1784	426.6589	3.082	2.2228	2.9479	1070.4636		
	660.05	315.3228	2.5725	642.246	45.953	0.2164	436.7375	3.4684	2.506	3.7682	1170.8695		
	660.2	315.3797	2.4858	642.396	49.7045	0.3018	446.224	3.474	2.5915	3.4676	1269.037		
	660.35	316.4237	2.3754	642.546	62.9552	0.3555	454.1666	3.104	2.4249	2.7151	1267.381		
	660.5	317.6457	2.3163	642.6955	72.2519	0.3697	456.501	2.8468	2.2401	2.1784	1258.8208		
	660.65	317.6647	2.2987	642.8263	71.6832	0.3605	454.3881	2.8651	2.0679	2.0076	1211.8993		
	660.8	316.4865	2.2914	642.9431	72.2408	0.3442	386.4528	2.8796	1.9791	1.9581	1008.374		
	660.95	314.7988	2.2944	643.0947	76.2211	0.3465	317.829	2.7575	1.9527	1.9436	897.038		
	661.1	313.9346	2.3077	643.2447	79.5191	0.3747	313.3338	2.6842	1.9266	1.9292	812.6973		
	661.25	314.1973	2.3176	643.3947	79.0749	0.4086	316.5929	2.7765	1.9107	1.9156	767.0637		
	661.4	314.7444	2.3191	643.5262	82.5991	0.4265	325.6007	2.8975	1.8876	1.8771	769.0848		
	661.55	314.68	2.3229	643.6432	86.0041	0.4266	346.3568	2.9456	1.8547	1.8369	795.8366		
	661.7	314.069	2.3348	643.7908	87.8882	0.4252	365.9308	2.9789	1.832	1.8945	825.638		
	661.85	313.1863	2.344	643.9407	83.3037	0.4181	386.4746	3.0355	1.8277	1.9358	868.9893		
	662	312.4566	2.3415	644.0906	80.5804	0.4049	389.5284	3.0769	1.8188	1.9094	909.1261		
	662.15	312.0834	2.3297	644.2238	78.1878	0.3925	396.2171	3.006	1.8068	1.85	953.132		
	662.3	311.4037	2.3335	644.342	79.499	0.3832	403.6947	2.8962	1.8014	1.8572	1040.2445		
	662.45	311.2605	2.3545	644.4869	77.7195	0.3922	409.2892	2.9819	1.8095	1.861	1058.4229		
	662.6	312.8806	2.3736	644.6369	78.1564	0.4278	413.4313	3.1861	1.8172	1.8964	1058.4229		
	662.75	315.1182	2.379	644.7868	82.2265	0.4547	416.475	3.2736	1.7909	1.8777	1058.4229		
	662.9	316.0754	2.3722	644.9368	89.9723	0.457	416.7992	3.1914	1.7518	1.7712	1058.4229		
	663.05	314.6217	2.3498	645.0868	87.6795	0.4606	411.4028	3.121	1.7347	1.6495	914.2222		
	663.2	310.5249	2.2761	645.2367	89.6405	0.5017	402.9603	3.0998	1.7539	1.5577	861.8074		
	663.35	305.7798	2.0903	645.3834	92.5043	0.5958	394.6979	2.9953	1.869	1.5219	861.8074		
	663.5	303.4022	1.7794	645.5073	87.9424	0.7541	392.6777	2.5377	2.1485	1.7065	861.8074		
	663.65	304.6394	1.4663	645.6477	64.3842	0.9626	387.7773	1.6982	2.6264	2.3178	850.4804		
	663.8	306.901	1.2917	645.7977	37.7047	1.3504	391.2995	0.9243	3.2783	3.6532	840.6307		
	663.95	307.2135	1.2253	645.9476	18.7917	1.9101	416.481	0.5067	3.7481	4.582	834.2244		
	664.1	305.635	1.2051	646.0847	10.0497	2.1028	443.0643	0.3484	3.9211	4.8111	1191.3977		
	664.25	303.2418	1.1983	646.2059	7.8943	1.7501	464.2357	0.2088	3.9996	4.8428	1410.3665		
	664.4	301.0663	1.1964	646.3436	7.4427	1.3504	482.4141	0.0274	4.0815	5.0377	1410.3665		
	664.55	300.3044	1.1995	646.4936	5.9317	1.1877	495.4871	-0.1083	4.0629	5.1088	1410.3665		
	664.7	301.4352	1.2164	646.6436	6.4036	1.2602	503.9854	-0.1024	3.9552	5.0079	1449.9537		
	664.85	303.9607	1.2863	646.7822	9.2955	1.3625	509.6906	0.0596	3.8338	4.7774	1519.8395		
	665	307.3298	1.4723	646.9046	16.0875	1.057	512.4528	0.3933	3.6753	4.2657	1571.8621		
	665.15	310.5813	1.7505	647.0395	31.414	0.6281	511.4388	0.8665	3.2556	3.5082	1595.6156		
	665.3	312.6809	2.0187	647.1895	52.2298	0.4377	506.9763	1.384	2.608	2.6291	1609.1937		
	665.45	313.2372	2.2389	647.3394	70.031	0.375	499.9065	1.9566	2.1704	2.0553	1619.9913		
	665.6	312.4891	2.3624	647.4894	79.1507	0.3622	491.9547	2.4102	2.0539	1.9315	1626.0986		
	665.75	311.6927	2.391	647.6393	82.5991	0.3915	483.7552	2.6514	2.0049	1.9198	1621.068		
	665.9	311.8973	2.3975	647.7893	85.7425	0.4321	474.9595	2.8321	1.934	1.8723	1602.5408		
	666.05	312.7888	2.4005	647.9371	87.399	0.4427	466.5065	3.0153	1.871	1.8194	1545.4044		
	666.2	313.6751	2.4009	648.0694	87.3674	0.422	456.9923	3.1964	1.8153	1.7824	1479.6559		
	666.35	314.1212	2.3965	648.2	90.2557	0.4034	444.9623	3.2775	1.7565	1.73	1479.6559		
	666.5	314.1168	2.3913	648.3499	95.5037	0.3974	432.9698	3.2369	1.6953	1.6708	1479.6559		
	666.65	314.122	2.3908	648.4999	96.8904	0.3955	423.0689	3.1835	1.6618	1.651	1463.6052		
	666.8	314.4593	2.3903	648.6426	95.8457	0.3964	415.2704	3.1334	1.6579	1.6734	1378.8173		
	666.95	314.8221	2.3847	648.7678	93.7759	0.3989	411.494	3.0571	1.6668	1.7044	1255.6113		
	667.1	314.9296	2.3774	648.8955	88.3992	0.3988	411.6505	3.0319	1.6743	1.7283	1204.0186		
	667.25	315.0272	2.373	649.0455	85.9597	0.3988	411.758	3.068	1.6809	1.7331	1142.24		
	667.4	315.28	2.3688	649.1954	84.7304	0.4027	407.4859	3.0635	1.6768	1.7019	1119.1045		
	667.55	315.3249	2.363	649.3397	87.0437	0.4125	410.7047	2.9831	1.6613	1.6775	1123.5945		
	667.7	314.9568	2.3591	649.4663	89.6411	0.4302	418.4737	2.8431	1.6527	1.6739	1131.3309		
	667.85	314.3602	2.3618	649.5912	88.1193	0.4439	416.9867	2.7895	1.6439	1.6692	1129.8353		
	668	313.7538	2.367	649.7411	84.5953	0.4444	412.0207	2.955	1.6327	1.6607	1121.6772		
	668.15	313.5779	2.367	649.8912	86.8374	0.4447	412.5259	3.1353	1.6167	1.6492	1118.1595		
