~VERSION	INFORMATION												
	VERS.	2	:	CWLS	LOG	ASCII	STANDARD	-	VERSION	2			
	WRAP.	NO	:	ONE	LINE	PER	DEPTH	STEP					
#													
~Well	Information	Section											
#MNEM	.UNIT	DATA	DESCRIPTION										
#-----	-----	--------	--------------										
	STRT	.M	410	:	START	DEPTH							
	STOP	.M	2720	:	END	DEPTH							
	STEP	.M	0.15	:	INCREMENT	DEPTH							
	NULL	.	-999.25	:	NULL	VALUE							
	COMP	.	:										
	WELL	.	XXXX	:	WELL	NAME							
	EKB	.M	0	:	KELLY	BUSHING	ELEVATION						
	EGL	.M	0	:	GROUND	LEVEL	ELEVATION						
	FLD	.	:										
	LOC	.	X	=	0	Y	=	0.0000:	WELL	LOCATION			
	PROV	.	:										
	SRVC	.	:										
	PROV	.	:										
	DATE	.	:										
	UWI	.	Unknown	:	UNIQUE	WELL	ID						
	API	.	:										
#													
~Curve	Information	Section											
#MNEM	.UNIT	Curve	#DESCRIPTION										
#-----	-----	----	--------------										
	DEPTH	.M	:	1	Name	=	Domain	Curve	-	Type	=	DEPTH	
	CALI	.mm	:	2	Name	=	Caliper_1	-	Type	=	Caliper		
	RHOB	.g/cc	:	3	Name	=	Density_3	-	Type	=	Density		
	UNKNOWN	.ft	:	4	Name	=	Depth_TVD	-	Type	=	Depth		
	GR	.API	:	5	Name	=	Gamma	Ray_1	-	Type	=	Gamma	Ray
	NPHI	.v/v	:	6	Name	=	Neutron	Porosity_1	-	Type	=	Neutron	Porosity
	DT	.us/m	:	7	Name	=	P-wave_1	-	Type	=	P-wave		
	UNKNOWN	.b/e	:	8	Name	=	Photoelectric_1	-	Type	=	Photoelectric		
	RES	.ohm-ft	:	9	Name	=	Resistivity	-	Type	=	Resistivity		
	RES	.ohm-m	:	10	Name	=	Resistivity_1	-	Type	=	Resistivity		
	SDT	.us/m	:	11	Name	=	S-wave_1	-	Type	=	S-wave		
~A	(ASCII	LOG	DATA)										
# ...
	2119.25	213.8375	2.5962	2069.604	56.9653	0.2236	271.883	3.238	3.4288	3.4025	494.3154		
	2119.3999	213.8375	2.5928	2069.7539	61.5319	0.219	273.8954	3.2472	3.5014	3.5705	497.308		
	2119.55	214.0294	2.5883	2069.9038	68.2811	0.2098	274.8113	3.1795	3.5422	3.554	501.8111		
	2119.7002	215.0556	2.5891	2070.054	83.3977	0.1919	273.7133	2.9955	3.4735	3.3447	504.2696		
	2119.8501	216.2525	2.5792	2070.2036	82.6859	0.1777	271.3166	2.7662	3.4198	3.2783	499.4427		
	2120	216.9748	2.5484	2070.3538	78.5634	0.1771	269.1641	2.5533	3.4254	3.3416	489.234		
	2120.1499	217.2533	2.5109	2070.5037	70.904	0.1817	267.0991	2.4662	3.4681	3.4811	481.3632		
	2120.3	217.0393	2.484	2070.6536	68.1234	0.182	264.8177	2.5248	3.5458	3.6452	477.0984		
	2120.4502	216.2269	2.4733	2070.8035	66.7409	0.184	264.2747	2.6623	3.5885	3.7259	470.2563		
	2120.6001	215.0889	2.4882	2070.9536	69.4169	0.1956	265.0193	2.8104	3.5172	3.5612	471.5953		
	2120.75	214.3255	2.5209	2071.1035	76.629	0.2069	266.5246	2.9021	3.5014	3.5323	477.2729		
	2120.8999	214.1994	2.5501	2071.2534	92.8448	0.2038	267.7343	2.9073	3.516	3.5743	482.0495		
	2121.05	214.2816	2.5627	2071.4031	111.3892	0.1896	268.5488	2.8519	3.5305	3.6164	486.4926		
	2121.2002	214.3586	2.559	2071.5535	122.7423	0.1739	269.4054	2.761	3.545	3.6585	489.5731		
	2121.3501	214.4455	2.5467	2071.7036	127.1293	0.1634	269.8052	2.6757	3.5596	3.7006	492.7094		
	2121.5	214.4412	2.5281	2071.8535	117.9484	0.1624	268.4421	2.6298	3.5797	3.7219	492.4411		
	2121.6499	214.3023	2.5095	2072.0032	108.2068	0.1712	268.5576	2.6415	3.5704	3.672	486.4057		
	2121.8	214.1568	2.5029	2072.1531	100.5131	0.1962	268.6473	2.7663	3.505	3.5314	486.6646		
	2121.9502	214.0817	2.507	2072.3032	98.4403	0.2365	273.5249	2.9784	3.3974	3.2854	506.2399		
	2122.1001	214.0023	2.5104	2072.4534	100.2902	0.2766	288.3475	3.1741	3.2178	2.9341	531.8047		
	2122.25	213.9042	2.5086	2072.6033	102.1383	0.2978	299.7796	3.3105	3.0218	2.6597	549.6157		
	2122.3999	213.8488	2.5071	2072.7529	103.9833	0.2935	303.7249	3.3867	2.9337	2.5996	559.2318		
	2122.55	213.8375	2.5108	2072.9028	105.8328	0.2709	305.3034	3.3817	2.9479	2.6658	563.0132		
	2122.7002	213.8375	2.52	2073.0532	107.6839	0.2422	304.5983	3.2825	3.0206	2.8206	559.7917		
	2122.8501	213.8646	2.5347	2073.2031	102.8774	0.2186	300.5806	3.1333	3.1251	3.048	548.1846		
	2123	213.9494	2.5496	2073.3528	95.8946	0.2077	293.3769	3.0481	3.2121	3.256	530.4389		
	2123.1499	214.074	2.563	2073.5027	96.7413	0.2029	287.0787	3.0871	3.2534	3.3439	513.1922		
	2123.3	214.1426	2.5785	2073.6528	97.9258	0.1935	283.587	3.1442	3.2467	3.3143	501.4274		
	2123.4502	213.9673	2.5843	2073.803	90.6919	0.1783	280.3419	3.031	3.2307	3.275	490.1794		
	2123.6001	213.4955	2.5603	2073.9529	74.6502	0.1612	277.9824	2.734	3.2145	3.2765	478.1357		
	2123.75	213.0229	2.4996	2074.1025	55.5223	0.149	279.1199	2.435	3.1374	3.1969	468.422		
	2123.8999	212.8022	2.4219	2074.2524	41.474	0.1436	279.5953	2.2425	3.0203	3.0022	461.7821		
	2124.05	212.7529	2.3622	2074.4026	33.4312	0.1404	279.671	2.1549	2.9318	2.8775	455.2144		
	2124.2002	212.7529	2.33	2074.5527	29.9656	0.1374	279.6567	2.118	2.8642	2.7876	449.4589		
	2124.3501	212.7529	2.3175	2074.7024	28.7085	0.137	278.7343	2.0992	2.8103	2.7257	449.4986		
	2124.5	212.7529	2.318	2074.8525	28.0154	0.1422	276.1521	2.1153	2.7708	2.7006	453.6166		
	2124.6499	212.7529	2.3249	2075.0024	28.0173	0.1483	274.0771	2.1582	2.722	2.6667	456.3921		
	2124.8	212.7529	2.3332	2075.1526	27.2656	0.1496	271.9898	2.178	2.6667	2.5617	457.3248		
	2124.9502	212.7551	2.3367	2075.3025	25.7586	0.1459	267.4008	2.177	2.6747	2.5034	457.1912		
	2125.1001	212.7816	2.3448	2075.4524	24.1604	0.1427	259.98	2.2096	2.7565	2.5829	457.1613		
	2125.25	212.9189	2.3768	2075.6025	24.8437	0.1498	253.333	2.3338	2.8835	2.7574	456.2104		
	2125.3999	213.2569	2.4398	2075.7522	35.1385	0.1653	250.0813	2.5523	3.0377	2.9831	451.347		
	2125.55	213.632	2.5056	2075.9023	58.3724	0.1713	247.8174	2.7027	3.2467	3.2957	444.7982		
	2125.7002	213.8236	2.55	2076.0522	76.3781	0.1593	246.0139	2.6977	3.6313	3.8354	438.7437		
	2125.8501	213.928	2.5707	2076.2021	79.356	0.1433	246.4046	2.6387	3.9758	4.2887	433.2212		
	2126	214.0795	2.5779	2076.3523	74.5666	0.1343	246.6924	2.602	4.2453	4.5805	428.6939		
	2126.1499	214.1754	2.5867	2076.5022	72.752	0.1303	245.4901	2.6042	4.5279	4.9561	424.3839		
	2126.3	214.076	2.5968	2076.6519	71.3501	0.127	243.8763	2.6103	4.7946	5.227	420.8658		
	2126.4502	214.083	2.6052	2076.802	68.8657	0.1223	242.172	2.5703	5.0061	5.4054	417.7594		
	2126.6001	214.2787	2.6056	2076.9521	69.1812	0.1181	240.2835	2.5136	5.2796	5.556	415.8755		
	2126.75	214.467	2.5938	2077.1021	66.5754	0.1171	238.8542	2.4758	5.4463	5.5706	412.537		
	2126.8999	214.4991	2.5782	2077.2517	63.7745	0.1218	237.857	2.4887	5.5119	5.5323	409.9505		
	2127.05	214.3031	2.5724	2077.4019	65.7413	0.131	237.6249	2.5606	5.5283	5.4867	407.6279		
	2127.2002	214.0237	2.574	2077.552	68.0422	0.1379	238.1775	2.6102	5.5434	5.3914	406.2171		
	2127.3501	213.8721	2.5794	2077.7019	70.5844	0.1412	239.4233	2.6299	5.5291	5.3299	407.9109		
	2127.5	213.8375	2.5868	2077.8518	78.7669	0.1442	240.2843	2.6819	5.4938	5.266	408.7281		
	2127.6499	213.8375	2.5922	2078.0024	76.638	0.1471	241.7828	2.795	5.456	5.2201	412.088		
	2127.8	213.8375	2.5951	2078.1538	79.717	0.1465	242.7449	2.8995	5.448	5.2701	414.8795		
	2127.9502	213.8375	2.6002	2078.3042	79.6276	0.1417	243.1498	2.8735	5.4612	5.322	417.4693		
	2128.1001	213.8375	2.6036	2078.4543	80.6385	0.1376	242.9779	2.785	5.4562	5.3268	417.3892		
	2128.25	213.8375	2.5983	2078.604	77.7446	0.138	242.4859	2.7306	5.456	5.3432	417.6469		
	2128.3999	213.8375	2.5929	2078.7537	74.6764	0.142	241.7732	2.7023	5.4359	5.37	416.9222		
	2128.55	213.8375	2.5913	2078.9038	75.8409	0.1469	240.6783	2.707	5.4295	5.3746	417.07		
	2128.7002	213.8375	2.5927	2079.054	76.3439	0.1502	239.6521	2.7528	5.417	5.4281	416.221		
	2128.8501	213.869	2.5977	2079.2041	74.4274	0.1533	239.0944	2.7896	5.3524	5.3782	415.2129		
	2129	213.9545	2.5999	2079.3538	75.4258	0.1596	238.6928	2.7765	5.2288	5.2021	414.3853		
	2129.1499	214.0145	2.5912	2079.5037	78.9568	0.1692	240.3633	2.7451	5.0785	4.9696	416.7383		
	2129.3	213.9572	2.5695	2079.6538	83.0568	0.1822	243.5582	2.7721	4.9462	4.8055	420.0741		
	2129.4502	213.9775	2.5573	2079.8037	82.2585	0.1902	248.0267	2.8357	4.8839	4.7045	427.213		
	2129.6001	214.1912	2.5623	2079.9539	85.1142	0.1919	251.1019	2.8792	4.8051	4.6146	435.2855		
	2129.75	214.3792	2.5749	2080.1035	88.0803	0.1867	253.7264	2.8482	4.7275	4.4967	441.6196		
	2129.8999	214.3853	2.5766	2080.2534	87.6942	0.1734	255.9485	2.745	4.6982	4.4449	446.6115		
	2130.05	214.3396	2.5669	2080.4036	79.8649	0.1603	257.0469	2.6657	4.7604	4.5481	449.7612		
	2130.2002	214.3202	2.56	2080.5537	73.7532	0.1559	256.6081	2.6684	4.874	4.8353	450.218		
	2130.3501	214.3176	2.5567	2080.7034	70.7934	0.1568	255.3502	2.6945	4.8901	4.9768	447.2563		
	2130.5	214.3086	2.5491	2080.8535	69.6864	0.1598	254.173	2.7067	4.8501	4.9512	442.6831		
	2130.6499	214.2066	2.5413	2081.0034	69.5777	0.1645	253.4828	2.7425	4.7909	4.9159	439.6917		
	2130.8	214.0324	2.5396	2081.1533	69.9878	0.1755	253.141	2.8129	4.722	4.877	438.8651		
	2130.9502	213.973	2.5433	2081.3032	70.6248	0.1921	253.525	2.8849	4.5956	4.742	440.7027		
	2131.1001	214.0792	2.5499	2081.4534	73.8146	0.2011	254.8119	2.9364	4.411	4.5128	445.7867		
	2131.25	214.1691	2.5554	2081.6033	78.9911	0.1962	256.9878	2.9538	4.2708	4.2701	452.3883		
	2131.3999	214.0888	2.5542	2081.7532	81.8922	0.1893	258.8847	2.9344	4.1878	4.1718	458.2114		
	2131.55	213.9333	2.549	2081.9031	79.1784	0.1959	259.5515	2.9534	4.2403	4.2508	461.5112		
	2131.7002	213.8514	2.5498	2082.053	80.2152	0.2132	260.1721	3.0368	4.1425	4.1086	462.3973		
	2131.8501	213.8375	2.5571	2082.2031	87.7606	0.2268	263.0074	3.0978	3.8603	3.7415	462.4549		
	2132	213.8375	2.5617	2082.353	93.6644	0.2323	268.5258	3.102	3.7013	3.4585	466.0384		
	2132.1499	213.8375	2.5599	2082.5029	97.447	0.2317	275.3866	3.1065	3.6205	3.2666	476.4043		
	2132.3	213.8075	2.554	2082.6528	100.2181	0.221	282.422	3.0991	3.5655	3.2902	491.5807		
	2132.4502	213.5813	2.5362	2082.803	99.0489	0.1956	287.63	2.8791	3.6209	3.4929	503.85		
