~VERSION	INFORMATION												
	VERS.	2	:	CWLS	LOG	ASCII	STANDARD	-	VERSION	2			
	WRAP.	NO	:	ONE	LINE	PER	DEPTH	STEP					
#													
~Well	Information	Section											
#MNEM	.UNIT	DATA	DESCRIPTION										
#-----	-----	--------	--------------										
	STRT	.M	410	:	START	DEPTH							
	STOP	.M	2720	:	END	DEPTH							
	STEP	.M	0.15	:	INCREMENT	DEPTH							
	NULL	.	-999.25	:	NULL	VALUE							
	COMP	.	:										
	WELL	.	XXXX	:	WELL	NAME							
	EKB	.M	0	:	KELLY	BUSHING	ELEVATION						
	EGL	.M	0	:	GROUND	LEVEL	ELEVATION						
	FLD	.	:										
	LOC	.	X	=	0	Y	=	0.0000:	WELL	LOCATION			
	PROV	.	:										
	SRVC	.	:										
	PROV	.	:										
	DATE	.	:										
	UWI	.	Unknown	:	UNIQUE	WELL	ID						
	API	.	:										
#													
~Curve	Information	Section											
#MNEM	.UNIT	Curve	#DESCRIPTION										
#-----	-----	----	--------------										
	DEPTH	.M	:	1	Name	=	Domain	Curve	-	Type	=	DEPTH	
	CALI	.mm	:	2	Name	=	Caliper_1	-	Type	=	Caliper		
	RHOB	.g/cc	:	3	Name	=	Density_3	-	Type	=	Density		
	UNKNOWN	.ft	:	4	Name	=	Depth_TVD	-	Type	=	Depth		
	GR	.API	:	5	Name	=	Gamma	Ray_1	-	Type	=	Gamma	Ray
	NPHI	.v/v	:	6	Name	=	Neutron	Porosity_1	-	Type	=	Neutron	Porosity
	DT	.us/m	:	7	Name	=	P-wave_1	-	Type	=	P-wave		
	UNKNOWN	.b/e	:	8	Name	=	Photoelectric_1	-	Type	=	Photoelectric		
	RES	.ohm-ft	:	9	Name	=	Resistivity	-	Type	=	Resistivity		
	RES	.ohm-m	:	10	Name	=	Resistivity_1	-	Type	=	Resistivity		
	SDT	.us/m	:	11	Name	=	S-wave_1	-	Type	=	S-wave		
~A	(ASCII	LOG	DATA)										
# ...
	2688.05	219.283	2.4749	2638.4021	46.3024	0.1274	273.6672	3.7233	5.3677	5.7563	508.0221		
	2688.2002	218.7374	2.4697	2638.552	45.107	0.1225	259.9131	3.6269	5.3844	5.5808	471.619		
	2688.3501	217.753	2.4709	2638.7019	43.3085	0.1196	238.8365	3.4942	5.4061	5.5134	443.201		
	2688.5	217.054	2.4688	2638.8516	41.2233	0.1218	230.5972	3.3989	5.3776	5.405	412.6721		
	2688.6501	217.2007	2.4652	2639.002	42.2737	0.1312	225.9073	3.3942	5.4115	5.3598	388.6352		
	2688.8	217.8082	2.4683	2639.1519	41.5416	0.1408	223.3537	3.395	5.4715	5.411	369.1023		
	2688.9502	218.4141	2.4672	2639.302	39.1262	0.1471	223.946	3.4174	5.3721	5.1633	363.95		
	2689.1001	219.0365	2.4752	2639.4519	38.2766	0.1545	227.6116	3.6469	5.1915	4.812	364.552		
	2689.25	221.1227	2.5112	2639.6013	41.1833	0.1589	233.7418	4.0768	5.2378	4.8964	373.0172		
	2689.4001	224.1712	2.5236	2639.7517	40.2579	0.1525	239.7715	4.3735	5.2344	4.9235	380.9941		
	2689.55	225.2446	2.4846	2639.9016	41.9764	0.1389	243.1927	4.4045	5.3114	5.0315	387.0966		
	2689.7002	226.0067	2.4526	2640.0535	51.3712	0.1351	243.7056	4.3543	5.8012	5.8254	389.8189		
	2689.8501	227.2497	2.4511	2640.2041	61.3681	0.1419	243.1994	4.4159	5.9399	5.9994	386.2444		
	2690	227.3552	2.4547	2640.354	61.4522	0.146	242.2433	4.5157	5.9776	5.9605	385.1545		
	2690.1501	225.576	2.4835	2640.5039	55.3098	0.1391	241.3315	4.4521	5.6927	5.0471	384.7689		
	2690.3	223.3475	2.5191	2640.6538	48.0468	0.1274	240.1854	4.3757	5.712	5.2385	387.1536		
	2690.4502	221.4859	2.5414	2640.8037	47.097	0.1213	239.2411	4.3025	5.9217	5.6462	394.8158		
	2690.6001	219.7188	2.5526	2640.9539	51.9624	0.1198	238.7586	4.201	6.09	5.9605	404.1799		
	2690.75	217.8802	2.5641	2641.1038	58.4327	0.1198	239.4905	4.1187	6.208	6.1646	410.3486		
	2690.9001	217.4354	2.5823	2641.2537	56.2418	0.1196	240.2516	4.0749	6.2166	6.1648	411.4409		
	2691.05	218.1656	2.5998	2641.4038	59.702	0.1218	240.7678	4.0856	6.2433	6.188	409.6362		
	2691.2002	219.497	2.589	2641.5537	67.2413	0.1316	242.0257	4.2134	6.2805	6.2466	406.7557		
	2691.3501	220.4305	2.5422	2641.7036	69.0501	0.1379	244.6215	4.3437	6.3697	6.2836	406.7328		
	2691.5	220.7229	2.5002	2641.8535	63.7174	0.14	246.8092	4.3393	6.2852	6.1431	407.2777		
	2691.6501	220.3728	2.4905	2642.0034	61.4968	0.1416	246.8169	4.2998	6.1809	5.9154	402.9273		
	2691.8	219.3327	2.5018	2642.1536	58.5082	0.142	244.069	4.2192	6.1497	5.8713	403.9032		
	2691.9502	217.8238	2.5027	2642.3035	58.8424	0.1401	239.6261	3.9876	6.295	6.0872	400.1591		
	2692.1001	216.831	2.4959	2642.4534	58.055	0.1414	234.8671	3.7396	6.3454	6.109	393.6656		
	2692.25	217.349	2.5009	2642.6033	55.0681	0.146	229.8412	3.7557	6.3164	5.9679	386.267		
	2692.4001	218.1778	2.5152	2642.7532	50.4724	0.1443	226.1951	3.9749	6.2051	5.7248	380.5277		
	2692.55	217.7666	2.5315	2642.9033	48.872	0.1327	225.7024	4.1229	6.1617	5.657	379.0142		
	2692.7002	216.3304	2.5562	2643.0532	53.3882	0.1211	225.4739	4.1214	6.2283	5.7408	377.6401		
	2692.8501	215.2463	2.583	2643.2034	56.3404	0.1169	224.8741	4.0346	6.3746	5.9247	378.5543		
	2693	214.8514	2.5909	2643.3533	55.901	0.1192	225.7579	3.9358	6.7656	6.5363	380.0442		
	2693.1501	214.7947	2.5854	2643.5032	55.794	0.1246	230.2391	3.8784	6.9753	6.9458	383.8689		
	2693.3	215.5862	2.5862	2643.6531	57.3045	0.1272	237.2827	3.9385	6.9487	6.9163	386.9764		
	2693.4502	217.5074	2.5927	2643.803	60.3375	0.1248	243.6399	4.1515	6.8924	6.7902	388.8058		
	2693.6001	219.9117	2.5844	2643.9531	62.9793	0.1226	247.5043	4.3742	6.8705	6.7398	390.6852		
	2693.75	221.9884	2.5437	2644.103	63.2008	0.1252	249.4035	4.4764	6.9081	6.8987	393.3791		
	2693.9001	223.0332	2.4867	2644.2529	58.436	0.1294	250.0812	4.437	6.974	7.0142	394.5908		
	2694.05	222.4097	2.4601	2644.4028	49.046	0.1313	248.7634	4.269	7.0034	7.0422	392.7219		
	2694.2002	220.4513	2.4727	2644.553	43.3805	0.1355	245.2127	4.0186	6.8005	6.7059	392.0572		
	2694.3501	219.0608	2.4937	2644.7029	46.6917	0.1445	240.6275	3.8636	6.4398	6.1118	394.8472		
	2694.5	220.0499	2.5061	2644.8525	49.858	0.1475	236.1286	3.9946	6.1836	5.7326	395.2959		
	2694.6501	222.211	2.5136	2645.0027	45.7568	0.1393	231.7248	4.2356	6.0183	5.5204	389.351		
	2694.8	222.5651	2.5273	2645.1528	43.7315	0.1295	227.8505	4.234	5.918	5.4952	383.8048		
	2694.9502	220.4449	2.5518	2645.3027	50.1187	0.1244	225.3374	4.0516	6.0587	5.8234	381.336		
	2695.1001	217.9027	2.578	2645.4526	57.5022	0.1235	223.8062	3.9306	6.269	6.1772	378.2608		
	2695.25	216.9013	2.592	2645.6025	62.0072	0.1261	224.0081	3.8885	6.237	6.2035	376.2711		
	2695.4001	217.2647	2.5923	2645.7527	64.6812	0.1311	225.7516	3.8977	6.1067	6.1193	376.3907		
	2695.55	217.8572	2.5874	2645.9026	65.1046	0.1349	228.5843	3.9309	5.9692	6.019	378.6586		
	2695.7002	217.9592	2.5791	2646.0525	65.3993	0.1346	232.9908	3.9243	5.8676	5.9578	377.9772		
	2695.8501	217.2052	2.5641	2646.2024	66.1113	0.1301	237.2274	3.7887	5.7361	5.8692	376.0788		
	2696	216.2365	2.5402	2646.3523	64.8542	0.1263	240.7846	3.6243	5.4617	5.51	382.0943		
	2696.1501	216.4778	2.5128	2646.5024	56.5637	-999.25	243.9112	3.7974	5.007	4.7961	393.1203		
	2696.3	218.1504	2.4978	2646.6523	45.8536	-999.25	245.9363	4.3588	4.6475	4.2864	397.2851		
	2696.4502	219.5827	2.4939	2646.8022	57.8091	-999.25	248.2678	4.8738	4.4466	4.0303	400.9271		
	2696.6001	219.9115	2.4862	2646.9524	96.8594	-999.25	246.6756	5.0697	4.351	3.8624	404.8418		
	2696.75	219.7753	2.484	2647.1023	120.4742	-999.25	242.0486	5.0627	4.3325	3.8493	408.0348		
	2696.9001	219.6037	2.5091	2647.2522	115.3943	-999.25	237.8112	5.0365	4.3174	3.851	400.3943		
	2697.05	219.3055	2.546	2647.4021	111.4851	-999.25	234.7117	5.0391	4.1831	3.6142	395.9421		
	2697.2002	219.1042	2.5734	2647.552	112.1319	-999.25	233.2101	4.9805	4.1344	3.476	393.062		
	2697.3501	219.3705	2.5854	2647.7021	110.4218	-999.25	232.5561	4.7578	4.196	3.5262	392.0555		
	2697.5	219.8405	2.5835	2647.8521	100.2828	-999.25	234.4399	4.4497	4.4395	3.8864	393.3774		
	2697.6501	220.2813	2.5792	2648.002	83.2564	-999.25	236.9033	4.2138	5.0109	4.8572	395.335		
	2697.8	220.956	2.5668	2648.1519	70.9126	-999.25	237.6064	4.0832	5.446	5.5161	399.6046		
	2697.9502	221.7348	2.5273	2648.302	59.0587	-999.25	238.7515	4.0475	5.6158	5.5778	412.5909		
	2698.1001	222.2601	2.4836	2648.4519	47.1586	-999.25	248.1988	4.1934	5.8317	5.7948	434.2319		
	2698.25	-999.25	2.4685	2648.6018	43.2168	-999.25	261.8811	4.3799	6.079	6.048	472.1101		
	2698.4001	-999.25	2.4695	2648.7517	47.4482	-999.25	275.3565	4.4641	6.2478	6.2429	503.519		
	2698.55	-999.25	2.4805	2648.9016	50.1023	-999.25	293.7272	4.4124	6.4048	6.3631	545.4191		
	2698.7002	-999.25	2.4911	2649.0518	50.9608	-999.25	305.4439	4.3461	6.5108	6.3769	568.2618		
	2698.8501	-999.25	2.4944	2649.2017	47.9421	-999.25	303.345	4.3385	6.5891	6.4184	565.6107		
	2699	-999.25	-999.25	2649.3516	46.979	-999.25	295.3315	-999.25	6.7388	6.495	556.5724		
	2699.1501	-999.25	-999.25	2649.5022	47.3163	-999.25	278.6609	-999.25	6.7732	6.4918	526.9241		
	2699.3	-999.25	-999.25	2649.6541	45.4127	-999.25	266.5114	-999.25	6.7538	6.4591	480.0344		
	2699.4502	-999.25	-999.25	2649.804	54.1914	-999.25	259.3218	-999.25	6.75	6.4134	455.2695		
	2699.6001	-999.25	-999.25	2649.9541	63.3148	-999.25	256.3108	-999.25	6.6575	6.2797	436.0161		
	2699.75	-999.25	-999.25	2650.1038	67.189	-999.25	253.8655	-999.25	6.6114	6.1676	426.8376		
	2699.9001	-999.25	-999.25	2650.2537	72.9989	-999.25	251.7566	-999.25	6.557	6.1482	416.9555		
	2700.05	-999.25	-999.25	2650.4038	76.2882	-999.25	249.7519	-999.25	6.6734	6.2141	406.4525		
	2700.2002	-999.25	-999.25	2650.5537	73.2359	-999.25	248.293	-999.25	6.7189	6.409	399.2224		
	2700.3501	-999.25	-999.25	2650.7039	63.1026	-999.25	247.0103	-999.25	6.8264	6.5638	398.2908		
	2700.5	-999.25	-999.25	2650.8535	63.7697	-999.25	245.4308	-999.25	6.7922	6.6274	397.2762		
	2700.6501	-999.25	-999.25	2651.0037	63.3675	-999.25	243.2913	-999.25	6.7518	6.5323	397.7173		
	2700.8	-999.25	-999.25	2651.1536	58.7119	-999.25	242.472	-999.25	6.7046	6.4648	392.8176		
	2700.9502	-999.25	-999.25	2651.3035	59.2356	-999.25	241.9523	-999.25	6.4776	6.4389	395.6239		
	2701.1001	-999.25	-999.25	2651.4536	59.5001	-999.25	242.419	-999.25	6.5141	6.4083	398.8668		
