~VERSION	INFORMATION												
	VERS.	2	:	CWLS	LOG	ASCII	STANDARD	-	VERSION	2			
	WRAP.	NO	:	ONE	LINE	PER	DEPTH	STEP					
#													
~Well	Information	Section											
#MNEM	.UNIT	DATA	DESCRIPTION										
#-----	-----	--------	--------------										
	STRT	.M	410	:	START	DEPTH							
	STOP	.M	2720	:	END	DEPTH							
	STEP	.M	0.15	:	INCREMENT	DEPTH							
	NULL	.	-999.25	:	NULL	VALUE							
	COMP	.	:										
	WELL	.	XXXX	:	WELL	NAME							
	EKB	.M	0	:	KELLY	BUSHING	ELEVATION						
	EGL	.M	0	:	GROUND	LEVEL	ELEVATION						
	FLD	.	:										
	LOC	.	X	=	0	Y	=	0.0000:	WELL	LOCATION			
	PROV	.	:										
	SRVC	.	:										
	PROV	.	:										
	DATE	.	:										
	UWI	.	Unknown	:	UNIQUE	WELL	ID						
	API	.	:										
#													
~Curve	Information	Section											
#MNEM	.UNIT	Curve	#DESCRIPTION										
#-----	-----	----	--------------										
	DEPTH	.M	:	1	Name	=	Domain	Curve	-	Type	=	DEPTH	
	CALI	.mm	:	2	Name	=	Caliper_1	-	Type	=	Caliper		
	RHOB	.g/cc	:	3	Name	=	Density_3	-	Type	=	Density		
	UNKNOWN	.ft	:	4	Name	=	Depth_TVD	-	Type	=	Depth		
	GR	.API	:	5	Name	=	Gamma	Ray_1	-	Type	=	Gamma	Ray
	NPHI	.v/v	:	6	Name	=	Neutron	Porosity_1	-	Type	=	Neutron	Porosity
	DT	.us/m	:	7	Name	=	P-wave_1	-	Type	=	P-wave		
	UNKNOWN	.b/e	:	8	Name	=	Photoelectric_1	-	Type	=	Photoelectric		
	RES	.ohm-ft	:	9	Name	=	Resistivity	-	Type	=	Resistivity		
	RES	.ohm-m	:	10	Name	=	Resistivity_1	-	Type	=	Resistivity		
	SDT	.us/m	:	11	Name	=	S-wave_1	-	Type	=	S-wave		
~A	(ASCII	LOG	DATA)										
# ...
	1680.3501	213.5507	2.5548	1630.7047	103.8015	0.2329	285.7097	3.0352	2.5012	2.5418	536.3753		
	1680.5	213.7009	2.5649	1630.8546	96.5789	0.2362	281.9988	2.9116	2.6607	2.7611	521.5748		
	1680.65	213.8129	2.5547	1631.0046	92.0661	0.2409	278.0811	2.8496	2.7736	2.8716	511.5639		
	1680.8	213.8361	2.5522	1631.1545	95.3043	0.238	273.5794	2.8294	2.8333	2.9237	514.7673		
	1680.9501	213.8375	2.5542	1631.3046	95.9507	0.2256	268.4589	2.8109	2.8991	2.9528	507.2203		
	1681.1001	213.8375	2.5548	1631.4545	97.7805	0.2128	268.8123	2.8173	2.946	3.0244	512.098		
	1681.25	213.8175	2.5609	1631.6045	94.6869	0.207	272.4962	2.8722	2.9908	3.1006	519.5672		
	1681.4	213.71	2.5712	1631.7543	91.098	0.2074	276.7172	2.9322	3.0647	3.2286	531.4601		
	1681.55	213.5642	2.5802	1631.9039	89.3123	0.2175	281.7096	2.9877	3.0621	3.2348	551.5685		
	1681.7001	213.6033	2.5861	1632.054	86.1331	0.2422	289.2202	3.0534	3.0211	3.1996	570.2021		
	1681.8501	213.7546	2.5773	1632.2039	85.9155	0.2598	302.7629	3.0603	2.8836	2.9865	582.9615		
	1682	213.8271	2.5497	1632.3539	88.1681	0.2665	313.319	3.059	2.6038	2.5485	600.5413		
	1682.15	213.8375	2.5214	1632.5038	93.3307	0.2713	320.5102	3.1068	2.4355	2.3532	625.2245		
	1682.3	213.8375	2.5099	1632.6538	97.2301	0.2874	327.0477	3.2278	2.2796	2.1965	647.3167		
	1682.4501	213.809	2.5116	1632.8037	100.322	0.3131	332.6523	3.3867	2.157	2.0708	654.8643		
	1682.6001	213.6136	2.5087	1632.9539	104.9338	0.336	335.7643	3.435	2.0126	1.8197	656.3193		
	1682.75	213.2658	2.4912	1633.1036	107.9694	0.3478	336.197	3.3221	1.9124	1.5922	661.6869		
	1682.9	212.9501	2.4643	1633.2537	109.3482	0.3478	334.8277	3.1677	1.9214	1.6017	657.5955		
	1683.05	212.8344	2.4381	1633.4036	111.8988	0.3433	330.4919	3.0796	2.0013	1.7595	655.9242		
	1683.2001	212.991	2.4238	1633.5536	113.1245	0.3398	324.6529	3.0922	2.0655	1.9324	652.1334		
	1683.3501	213.2971	2.4289	1633.7035	111.4509	0.331	318.9315	3.1301	2.1057	2.045	644.2944		
	1683.5	213.5079	2.45	1633.8535	108.3956	0.314	325.0539	3.0919	2.1018	2.0666	640.1131		
	1683.65	213.4806	2.4724	1634.0033	106.0465	0.3028	336.0317	3.022	2.0616	1.9889	655.8835		
	1683.8	213.304	2.4884	1634.1533	102.3782	0.3213	342.1034	3.0976	2.0583	1.9257	687.1032		
	1683.9501	213.1965	2.5004	1634.3033	96.367	0.3662	344.826	3.276	2.1005	1.9892	713.4299		
	1684.1001	213.3131	2.4897	1634.4534	92.4379	0.4075	345.8802	3.3255	2.1335	2.0683	725.5796		
	1684.25	213.5755	2.4479	1634.6034	92.9413	0.4058	344.3306	3.2417	2.1362	2.093	721.9942		
	1684.4	213.7697	2.4252	1634.7532	94.2918	0.3521	337.9971	3.1952	2.1009	2.0159	700.3173		
	1684.55	213.8314	2.4703	1634.9032	94.3747	0.2933	324.0626	3.1285	2.056	1.8469	657.6253		
	1684.7001	213.8401	2.5264	1635.0532	91.3109	0.2686	310.1711	2.9511	2.0783	1.7933	603.5216		
	1684.8501	213.8738	2.5325	1635.2031	87.5728	0.2646	303.3227	2.7702	2.199	1.9496	571.2164		
	1685	213.9881	2.5126	1635.353	87.919	0.2631	299.5828	2.6629	2.3377	2.2064	566.8217		
	1685.15	214.1254	2.5008	1635.5031	88.8741	0.2601	297.3801	2.6056	2.4454	2.412	568.4464		
	1685.3	214.1321	2.5023	1635.653	89.9003	0.2524	296.9408	2.6088	2.5392	2.5223	570.6514		
	1685.4501	214.017	2.508	1635.803	90.8105	0.2455	298.8296	2.6946	2.6102	2.5971	573.0839		
	1685.6001	213.9546	2.5128	1635.9529	88.3037	0.2467	300.8458	2.8176	2.6633	2.6492	577.7861		
	1685.75	213.9837	2.513	1636.1029	87.1112	0.2545	305.4136	2.9021	2.7235	2.7091	574.7404		
	1685.9	213.9801	2.5055	1636.2529	87.4465	0.2649	311.3128	2.8978	2.7922	2.754	572.2686		
	1686.05	213.9124	2.4932	1636.4028	87.2369	0.2737	308.0797	2.8595	2.8216	2.741	563.9266		
	1686.2001	213.8558	2.4849	1636.5529	88.0788	0.2734	301.3517	2.8903	2.8301	2.7221	550.5685		
	1686.3501	213.8375	2.4892	1636.7028	90.7606	0.2593	293.8083	2.944	2.8592	2.7335	535.9716		
	1686.5	213.8375	2.5036	1636.8528	92.5556	0.2369	286.8916	2.8965	2.9218	2.8066	523.6146		
	1686.65	213.8375	2.5117	1637.0027	89.3195	0.2167	281.8293	2.7814	3.0096	2.9405	511.5298		
	1686.8	213.8375	2.5085	1637.1526	83.3035	0.2036	279.3261	2.7119	3.1303	3.1383	502.174		
	1686.9501	213.8375	2.5023	1637.3025	78.8117	0.1967	279.426	2.7013	3.2302	3.2597	500.8573		
	1687.1001	213.8375	2.4975	1637.4526	72.5426	0.1939	280.9766	2.697	3.3117	3.3748	504.447		
	1687.25	213.8375	2.4923	1637.6024	67.8708	0.1948	282.8634	2.6668	3.4125	3.5029	509.2539		
	1687.4	213.8375	2.485	1637.7524	66.3778	0.1984	284.9585	2.6407	3.4864	3.5883	516.4926		
	1687.55	213.8375	2.4786	1637.9023	65.1986	0.2043	286.3323	2.6582	3.5194	3.6058	522.5886		
	1687.7001	213.8375	2.4749	1638.0525	66.079	0.2141	286.768	2.7239	3.5524	3.6283	525.2066		
	1687.8501	213.8375	2.4829	1638.2024	67.9185	0.2256	286.9369	2.7899	3.5688	3.638	525.2601		
	1688	213.8375	2.4974	1638.3523	68.2275	0.23	287.0153	2.8088	3.5576	3.6012	524.337		
	1688.15	213.8375	2.499	1638.5023	72.4611	0.2293	286.7524	2.8061	3.5235	3.516	522.9507		
	1688.3	213.8378	2.4934	1638.6522	78.4978	0.2266	286.2376	2.8075	3.4229	3.3241	521.8541		
	1688.4501	213.8438	2.4952	1638.8022	79.2225	0.2263	285.5	2.8473	3.3396	3.1805	521.2531		
	1688.6001	213.8904	2.5071	1638.9523	77.5604	0.2307	284.6045	2.9105	3.353	3.3207	519.9286		
	1688.75	214.058	2.5154	1639.1021	73.6204	0.2354	283.629	2.9261	3.3558	3.4038	518.5997		
	1688.9	214.3137	2.512	1639.252	77.3281	0.2336	282.8652	2.8954	3.2925	3.2677	517.466		
	1689.05	214.4951	2.505	1639.4021	77.6601	0.2249	282.514	2.8896	3.2315	3.1171	516.3656		
	1689.2001	214.4818	2.5035	1639.552	80.0062	0.2172	282.5366	2.9037	3.2059	3.1442	518.2251		
	1689.3501	214.2613	2.5088	1639.702	79.6072	0.2157	285.1042	2.892	3.2026	3.1761	523.4568		
	1689.5	214.0026	2.5152	1639.8527	77.4818	0.2215	287.7767	2.8741	3.1906	3.2443	533.1562		
	1689.65	213.8712	2.5166	1640.0043	76.8252	0.236	294.6689	2.8847	3.1583	3.236	540.3971		
	1689.8	213.8382	2.5136	1640.1543	79.7917	0.2548	297.7993	2.9378	3.1123	3.2116	552.1757		
	1689.9501	213.8375	2.5125	1640.3043	81.9666	0.2692	303.6254	3.0438	2.9496	3.0195	567.4001		
	1690.1001	213.8375	2.517	1640.4542	85.0079	0.2764	307.6524	3.1412	2.8109	2.7893	579.5438		
	1690.25	213.8375	2.5224	1640.6044	84.6149	0.2813	309.5729	3.1784	2.7288	2.6634	584.8384		
	1690.4	213.8375	2.5194	1640.754	87.3017	0.2872	310.3491	3.1531	2.6652	2.5636	587.1584		
	1690.55	213.8375	2.5053	1640.9042	90.3769	0.2883	310.6292	3.1112	2.6261	2.523	587.5952		
	1690.7001	213.8375	2.4947	1641.0541	91.1828	0.2841	308.2284	3.1533	2.6138	2.5171	588.2386		
	1690.8501	213.8375	2.5054	1641.204	91.5231	0.2834	308.1564	3.2463	2.6239	2.5339	591.0639		
	1691	213.8375	2.5254	1641.354	88.3902	0.2905	309.6852	3.2194	2.6222	2.5948	596.8358		
	1691.15	213.8375	2.5243	1641.5039	91.9345	0.297	312.9303	3.1641	2.5839	2.5806	603.6774		
	1691.3	213.8375	2.5112	1641.6538	92.4005	0.3041	316.0363	3.152	2.5485	2.5222	610.7505		
	1691.4501	213.8375	2.501	1641.8038	91.2231	0.3099	318.1306	3.1846	2.5168	2.4742	615.1808		
	1691.6001	213.8375	2.5023	1641.9539	93.0071	0.3141	319.2455	3.3024	2.5046	2.4496	613.171		
	1691.75	213.8375	2.5088	1642.1038	96.452	0.3179	318.7693	3.3836	2.4881	2.4343	609.2652		
	1691.9	213.8375	2.5098	1642.2538	97.3836	0.3201	317.7305	3.3224	2.4759	2.4193	608.551		
	1692.05	213.8375	2.5059	1642.4037	95.6865	0.3217	316.554	3.1945	2.4832	2.4297	608.0853		
	1692.2001	213.8375	2.5003	1642.5537	95.4623	0.3214	315.4943	3.0883	2.4845	2.4396	611.0103		
	1692.3501	213.8375	2.4947	1642.7036	98.9774	0.3151	314.9567	3.0419	2.478	2.4341	610.6094		
	1692.5	213.8375	2.4972	1642.8538	100.5986	0.3011	314.9813	3.0815	2.473	2.4318	609.4458		
	1692.65	213.8375	2.5063	1643.0035	100.107	0.293	315.2038	3.1558	2.4719	2.4364	608.5663		
	1692.8	213.8509	2.5095	1643.1536	100.9751	0.2987	315.3693	3.2063	2.47	2.431	607.7272		
	1692.9501	213.9346	2.5028	1643.3035	101.9903	0.3063	314.8121	3.2263	2.477	2.4495	606.152		
	1693.1001	214.1397	2.4921	1643.4535	101.6077	0.3094	312.8872	3.2235	2.5063	2.5013	603.3909		
	1693.25	214.3821	2.4847	1643.6034	100.144	0.312	309.817	3.2105	2.5397	2.5369	599.4655		
	1693.4	214.5158	2.4827	1643.7533	100.8886	0.3137	307.3721	3.221	2.5734	2.5439	597.267		
	1693.55	214.5025	2.4842	1643.9033	104.7094	0.3138	304.0031	3.2579	2.6108	2.5413	595.8926		
