~VERSION	INFORMATION												
	VERS.	2	:	CWLS	LOG	ASCII	STANDARD	-	VERSION	2			
	WRAP.	NO	:	ONE	LINE	PER	DEPTH	STEP					
#													
~Well	Information	Section											
#MNEM	.UNIT	DATA	DESCRIPTION										
#-----	-----	--------	--------------										
	STRT	.M	410	:	START	DEPTH							
	STOP	.M	2720	:	END	DEPTH							
	STEP	.M	0.15	:	INCREMENT	DEPTH							
	NULL	.	-999.25	:	NULL	VALUE							
	COMP	.	:										
	WELL	.	XXXX	:	WELL	NAME							
	EKB	.M	0	:	KELLY	BUSHING	ELEVATION						
	EGL	.M	0	:	GROUND	LEVEL	ELEVATION						
	FLD	.	:										
	LOC	.	X	=	0	Y	=	0.0000:	WELL	LOCATION			
	PROV	.	:										
	SRVC	.	:										
	PROV	.	:										
	DATE	.	:										
	UWI	.	Unknown	:	UNIQUE	WELL	ID						
	API	.	:										
#													
~Curve	Information	Section											
#MNEM	.UNIT	Curve	#DESCRIPTION										
#-----	-----	----	--------------										
	DEPTH	.M	:	1	Name	=	Domain	Curve	-	Type	=	DEPTH	
	CALI	.mm	:	2	Name	=	Caliper_1	-	Type	=	Caliper		
	RHOB	.g/cc	:	3	Name	=	Density_3	-	Type	=	Density		
	UNKNOWN	.ft	:	4	Name	=	Depth_TVD	-	Type	=	Depth		
	GR	.API	:	5	Name	=	Gamma	Ray_1	-	Type	=	Gamma	Ray
	NPHI	.v/v	:	6	Name	=	Neutron	Porosity_1	-	Type	=	Neutron	Porosity
	DT	.us/m	:	7	Name	=	P-wave_1	-	Type	=	P-wave		
	UNKNOWN	.b/e	:	8	Name	=	Photoelectric_1	-	Type	=	Photoelectric		
	RES	.ohm-ft	:	9	Name	=	Resistivity	-	Type	=	Resistivity		
	RES	.ohm-m	:	10	Name	=	Resistivity_1	-	Type	=	Resistivity		
	SDT	.us/m	:	11	Name	=	S-wave_1	-	Type	=	S-wave		
~A	(ASCII	LOG	DATA)										
# ...
	2397.05	212.7529	2.6036	2347.4045	109.1012	0.2665	268.6638	4.0699	3.2372	2.9799	490.2463		
	2397.2002	212.7529	2.6085	2347.5547	106.4354	0.2733	272.8848	3.9947	3.3682	3.2637	499.8997		
	2397.3501	212.7529	2.6014	2347.7048	102.3536	0.2703	277.5486	3.9037	3.4935	3.4786	509.9441		
	2397.5	212.7529	2.5771	2347.8547	101.5147	0.2636	281.5285	3.8691	3.624	3.6775	519.1567		
	2397.6499	212.7529	2.5552	2348.0044	105.2909	0.2578	283.9843	3.87	3.6665	3.7397	528.6666		
	2397.8	212.7529	2.5559	2348.1543	115.1013	0.2523	283.7041	3.8726	3.6156	3.6035	533.8779		
	2397.9502	212.7529	2.5711	2348.3047	121.1774	0.249	283.8593	3.863	3.553	3.401	531.3169		
	2398.1001	212.7529	2.587	2348.4546	116.881	0.2476	282.519	3.8333	3.548	3.3247	525.6874		
	2398.25	212.7635	2.5986	2348.6042	109.8375	0.2455	277.787	3.8284	3.5894	3.4024	517.5334		
	2398.3999	212.8441	2.6011	2348.7542	103.9197	0.2432	276.3027	3.8679	3.6255	3.5228	508.8971		
	2398.55	213.0306	2.5934	2348.9043	99.6655	0.2446	277.5554	3.8982	3.6348	3.6005	502.3324		
	2398.7002	213.2856	2.5762	2349.0544	101.1073	0.2537	279.019	3.8665	3.5762	3.5435	503.3849		
	2398.8501	213.5484	2.5582	2349.2041	109.2514	0.2671	280.8068	3.8148	3.4609	3.3365	509.4948		
	2399	213.7431	2.551	2349.354	113.8928	0.2728	281.3951	3.813	3.394	3.1772	511.3396		
	2399.1499	213.6918	2.5511	2349.5037	108.4502	0.264	280.637	3.8682	3.3941	3.1626	510.5682		
	2399.3	213.4273	2.5479	2349.6536	104.558	0.2513	278.562	3.9475	3.3731	3.1526	510.2865		
	2399.4502	213.2249	2.5398	2349.804	104.4624	0.244	276.3341	4.0307	3.3385	3.1022	509.5326		
	2399.6001	213.1466	2.5333	2349.9539	103.1091	0.2417	275.848	4.0975	3.3489	3.0803	507.7837		
	2399.75	213.1507	2.5351	2350.1035	101.7967	0.2478	277.185	4.0402	3.382	3.1062	506.3889		
	2399.8999	213.4422	2.5414	2350.2534	99.6611	0.2624	279.2094	3.7894	3.4507	3.2141	508.232		
	2400.05	213.8087	2.5414	2350.4036	100.0049	0.2768	281.8792	3.5648	3.6585	3.4976	513.4033		
	2400.2002	213.8375	2.5364	2350.5535	99.9449	0.2845	285.3385	3.5088	4.0599	4.0189	520.0544		
	2400.3501	213.8375	2.5323	2350.7036	97.0126	0.2872	288.7599	3.467	4.5144	4.5405	527.6965		
	2400.5	213.8375	2.5304	2350.8535	94.8062	0.2891	290.5853	3.4312	4.862	4.8084	533.7512		
	2400.6499	213.8375	2.534	2351.0032	94.8487	0.2913	291.446	3.3926	5.164	5.0505	539.5128		
	2400.8	213.8375	2.5395	2351.1531	94.8849	0.2926	293.2675	3.3643	5.4413	5.3153	544.2052		
	2400.9502	213.8203	2.5359	2351.3035	93.2553	0.2956	296.0728	3.3755	5.6893	5.5129	543.549		
	2401.1001	213.7542	2.5248	2351.4534	90.9464	0.3003	298.7019	3.4086	5.9331	5.6799	546.1605		
	2401.25	213.6856	2.5051	2351.6033	87.3295	0.2993	301.1266	3.4437	6.2798	6.0667	548.2845		
	2401.3999	213.701	2.4844	2351.7532	83.7677	0.2893	301.4667	3.4524	6.6523	6.497	546.2108		
	2401.55	213.7767	2.4746	2351.9031	79.4241	0.2772	298.8271	3.4228	6.8241	6.7424	541.0551		
	2401.7002	213.8277	2.479	2352.0532	78.0347	0.2594	293.0774	3.3579	6.98	6.9536	533.3982		
	2401.8501	213.8375	2.4969	2352.2031	76.0478	0.2302	285.3876	3.2993	6.999	6.999	517.1176		
	2402	213.8375	2.5274	2352.353	74.8106	0.2028	277.9268	3.2865	6.9035	6.8935	498.373		
	2402.1499	213.8325	2.5576	2352.5027	76.0566	0.1872	270.1908	3.2852	6.7795	6.7705	477.7375		
	2402.3	213.7737	2.5732	2352.6528	72.0624	0.1769	258.6617	3.247	6.6275	6.666	456.5096		
	2402.4502	213.557	2.5749	2352.803	73.8791	0.1648	254.7102	3.1622	6.3061	6.4387	442.3796		
	2402.6001	213.3923	2.5642	2352.9529	80.8627	0.165	252.7048	3.1369	5.971	5.984	435.939		
	2402.75	213.5329	2.553	2353.1025	87.0363	0.1706	249.8046	3.1901	5.6606	5.5997	427.325		
	2402.8999	213.7697	2.5577	2353.2527	90.3207	0.1714	247.1682	3.1884	5.4533	5.3609	420.9767		
	2403.05	213.9918	2.5744	2353.4028	87.0828	0.1627	245.2408	3.0935	5.2497	5.1375	414.738		
	2403.2002	214.6109	2.5876	2353.553	86.3548	0.1502	243.971	3.0245	4.9725	4.8307	413.3345		
	2403.3501	215.5123	2.5867	2353.7029	92.9271	0.1414	244.0469	3.1019	4.6952	4.4388	416.2542		
	2403.5	215.8326	2.5795	2353.8525	98.5893	0.1424	245.9297	3.2594	4.5294	4.0823	416.7446		
	2403.6499	215.2721	2.583	2354.0024	100.4589	0.161	248.9004	3.3519	4.3791	3.8434	415.9986		
	2403.8	214.1327	2.5928	2354.1526	101.6267	0.1823	249.9359	3.3894	4.2597	3.6951	425.9577		
	2403.9502	213.5124	2.5981	2354.3044	97.1149	0.1909	251.0502	3.4099	4.3606	3.9202	433.8211		
	2404.1001	213.4421	2.596	2354.4551	83.9902	0.1945	252.2494	3.4172	4.7135	4.6128	440.188		
	2404.25	213.3969	2.5928	2354.605	66.3862	0.205	252.6932	3.4149	5.2656	5.3921	442.8957		
	2404.3999	213.3277	2.5922	2354.7549	57.2735	0.2193	252.9147	3.4263	5.5486	5.7147	450.5137		
	2404.55	213.4722	2.5983	2354.9045	57.271	0.2297	254.8104	3.5129	5.7684	5.9092	458.3686		
	2404.7002	213.7025	2.6097	2355.0547	62.9343	0.2353	258.8347	3.5986	6.0424	6.1531	467.4529		
	2404.8501	213.8129	2.6199	2355.2048	67.3745	0.2368	261.1495	3.613	6.253	6.381	473.5087		
	2405	213.8358	2.6242	2355.3547	64.8119	0.2251	260.6593	3.6128	6.4578	6.5427	470.7034		
	2405.1499	213.8375	2.6256	2355.5046	59.8817	0.1946	259.3036	3.5914	6.5671	6.5161	458.9798		
	2405.3	213.8375	2.6259	2355.6545	54.4795	0.1598	252.3566	3.4514	6.6245	6.4711	437.7734		
	2405.4502	213.8375	2.6122	2355.8047	57.1225	0.1364	246.1825	3.2357	6.6638	6.5677	419.6084		
	2405.6001	213.8375	2.5807	2355.9546	64.2567	0.1268	242.4762	3.0469	6.6854	6.6081	404.3479		
	2405.75	213.8375	2.5668	2356.1045	67.7708	0.1269	239.9828	3.0423	6.6857	6.6359	397.3181		
	2405.8999	213.8375	2.5769	2356.2544	67.413	0.1293	238.0277	3.1485	6.6488	6.6001	394.2022		
	2406.05	213.8375	2.5936	2356.4043	67.6898	0.1311	237.1686	3.2208	6.5229	6.4693	393.5891		
	2406.2002	213.8705	2.5971	2356.5544	73.1966	0.1313	237.5555	3.1503	6.2929	6.1707	392.9331		
	2406.3501	213.9813	2.5852	2356.7043	79.027	0.1303	238.6511	3.0295	5.9478	5.6595	395.1819		
	2406.5	214.1435	2.5677	2356.8542	84.3414	0.1291	239.4153	2.9932	5.685	5.2285	396.9174		
	2406.6499	214.1852	2.5558	2357.0042	85.1947	0.1273	239.3946	3.0073	5.6318	5.0921	398.2169		
	2406.8	214.0536	2.5587	2357.1541	78.8692	0.1257	238.8509	2.996	5.7678	5.3632	400.2143		
	2406.9502	213.9576	2.5712	2357.3042	71.3504	0.126	238.0327	2.9742	5.8659	5.5885	401.3062		
	2407.1001	213.9866	2.5792	2357.4543	67.8339	0.1289	237.1087	2.9735	5.846	5.5662	399.9855		
	2407.25	214.0168	2.5777	2357.6042	67.2128	0.1336	236.2127	3.001	5.8485	5.5698	400.5387		
	2407.3999	213.9526	2.5766	2357.7542	67.5511	0.1421	235.7162	3.0995	5.863	5.6053	402.0756		
	2407.55	213.8682	2.5854	2357.9041	65.7677	0.1572	237.5423	3.2416	5.8675	5.6283	405.3954		
	2407.7002	213.8385	2.5935	2358.054	63.8619	0.1771	241.8642	3.3178	5.8721	5.6515	411.3093		
	2407.8501	213.8121	2.5881	2358.2041	62.7853	0.1894	247.5535	3.3162	5.8766	5.6746	418.5048		
	2408	213.713	2.5741	2358.354	62.177	0.1815	251.5564	3.3031	5.9015	5.6994	424.4934		
	2408.1499	213.5804	2.569	2358.5037	61.9768	0.1654	253.1561	3.3086	5.9274	5.7244	427.7846		
	2408.3	213.5048	2.5776	2358.6538	61.3522	0.1567	254.0204	3.3026	5.9411	5.743	428.7064		
	2408.4502	213.4842	2.584	2358.804	61.0079	0.1544	252.8895	3.2554	5.9535	5.7568	426.3174		
	2408.6001	213.5439	2.5805	2358.9539	61.2726	0.1515	248.8384	3.2261	5.9633	5.7751	420.0115		
	2408.75	213.6911	2.5745	2359.1035	61.5366	0.1446	243.4275	3.2669	5.9705	5.7977	413.1994		
	2408.8999	213.8068	2.5718	2359.2537	61.3287	0.1372	239.2054	3.3199	5.9929	5.8488	408.1321		
	2409.05	213.8375	2.5765	2359.4036	60.6122	0.1329	237.377	3.288	6.0416	5.9175	403.9534		
	2409.2002	213.8375	2.5861	2359.5537	60.164	0.1304	236.6685	3.1759	6.0879	5.9874	401.7697		
	2409.3501	213.8375	2.5864	2359.7039	60.2894	0.1289	236.5147	3.0842	6.0972	6.0113	401.191		
	2409.5	213.8375	2.5742	2359.8535	62.3095	0.1295	236.8977	3.0529	6.0745	5.9451	401.1315		
	2409.6499	213.8375	2.5639	2360.0034	64.9369	0.132	237.6433	3.0686	6.0477	5.886	402.0672		
	2409.8	213.8375	2.5635	2360.1533	64.8807	0.1353	238.3735	3.1304	6.0294	5.8654	403.5605		
	2409.9502	213.8375	2.568	2360.3035	65.0246	0.1399	239.0433	3.2081	6.0064	5.8732	405.073		
	2410.1001	213.8322	2.5699	2360.4534	66.6182	0.1462	239.5664	3.2436	5.9416	5.8421	406.3819		
