~VERSION	INFORMATION												
	VERS.	2	:	CWLS	LOG	ASCII	STANDARD	-	VERSION	2			
	WRAP.	NO	:	ONE	LINE	PER	DEPTH	STEP					
#													
~Well	Information	Section											
#MNEM	.UNIT	DATA	DESCRIPTION										
#-----	-----	--------	--------------										
	STRT	.M	410	:	START	DEPTH							
	STOP	.M	2720	:	END	DEPTH							
	STEP	.M	0.15	:	INCREMENT	DEPTH							
	NULL	.	-999.25	:	NULL	VALUE							
	COMP	.	:										
	WELL	.	XXXX	:	WELL	NAME							
	EKB	.M	0	:	KELLY	BUSHING	ELEVATION						
	EGL	.M	0	:	GROUND	LEVEL	ELEVATION						
	FLD	.	:										
	LOC	.	X	=	0	Y	=	0.0000:	WELL	LOCATION			
	PROV	.	:										
	SRVC	.	:										
	PROV	.	:										
	DATE	.	:										
	UWI	.	Unknown	:	UNIQUE	WELL	ID						
	API	.	:										
#													
~Curve	Information	Section											
#MNEM	.UNIT	Curve	#DESCRIPTION										
#-----	-----	----	--------------										
	DEPTH	.M	:	1	Name	=	Domain	Curve	-	Type	=	DEPTH	
	CALI	.mm	:	2	Name	=	Caliper_1	-	Type	=	Caliper		
	RHOB	.g/cc	:	3	Name	=	Density_3	-	Type	=	Density		
	UNKNOWN	.ft	:	4	Name	=	Depth_TVD	-	Type	=	Depth		
	GR	.API	:	5	Name	=	Gamma	Ray_1	-	Type	=	Gamma	Ray
	NPHI	.v/v	:	6	Name	=	Neutron	Porosity_1	-	Type	=	Neutron	Porosity
	DT	.us/m	:	7	Name	=	P-wave_1	-	Type	=	P-wave		
	UNKNOWN	.b/e	:	8	Name	=	Photoelectric_1	-	Type	=	Photoelectric		
	RES	.ohm-ft	:	9	Name	=	Resistivity	-	Type	=	Resistivity		
	RES	.ohm-m	:	10	Name	=	Resistivity_1	-	Type	=	Resistivity		
	SDT	.us/m	:	11	Name	=	S-wave_1	-	Type	=	S-wave		
~A	(ASCII	LOG	DATA)										
# ...
	2251.55	212.3288	2.3517	2201.9038	23.9782	0.1495	258.1763	1.8747	2.7688	2.7753	424.5878		
	2251.7002	212.3363	2.3461	2202.0542	23.7393	0.1471	259.0823	1.9091	2.7439	2.7289	425.9467		
	2251.8501	212.5043	2.3488	2202.2043	22.6718	0.1411	259.5975	1.9122	2.7418	2.7382	427.2779		
	2252	212.684	2.3626	2202.3542	21.4779	0.1389	258.751	1.8856	2.7905	2.8586	428.3756		
	2252.1499	212.742	2.3828	2202.5037	21.2762	0.1438	256.6636	1.8384	2.9064	3.1255	428.8742		
	2252.3	212.7523	2.3903	2202.6538	22.5852	0.1499	255.0387	1.783	2.9975	3.2623	427.553		
	2252.4502	212.7529	2.3768	2202.804	23.5426	0.1538	253.838	1.7547	3.0173	3.1904	425.1039		
	2252.6001	212.7529	2.3596	2202.9541	25.0682	0.1538	253.2193	1.7809	2.9521	2.9431	423.3437		
	2252.75	212.7529	2.3567	2203.1038	24.8615	0.1477	253.7193	1.8905	2.9172	2.8393	422.1841		
	2252.8999	212.7529	2.3713	2203.2537	25.0321	0.1419	254.4141	2.0329	2.9496	2.7907	421.754		
	2253.05	212.7529	2.4016	2203.4038	27.2315	0.143	255.1738	2.1428	3.1128	3.0939	422.2833		
	2253.2002	212.7529	2.4323	2203.5537	31.4343	0.1464	255.2099	2.2541	3.3274	3.679	423.5138		
	2253.3501	212.7529	2.4466	2203.7036	33.9797	0.1468	255.0884	2.3035	3.4081	3.6704	424.8615		
	2253.5	212.7529	2.4494	2203.8538	36.0722	0.1473	253.6827	2.1798	3.4582	3.6891	425.3569		
	2253.6499	212.7529	2.4357	2204.0037	36.5905	0.1486	251.6783	1.9941	3.4705	3.7522	424.214		
	2253.8	212.7529	2.4109	2204.1536	33.512	0.1491	249.7828	1.934	3.4298	3.6948	421.3599		
	2253.9502	212.7529	2.3956	2204.3037	29.8823	0.1485	248.9727	1.9828	3.3646	3.5509	417.5684		
	2254.1001	212.7529	2.3953	2204.4534	30.7625	0.147	249.7401	2.0441	3.347	3.4948	414.8497		
	2254.25	212.7529	2.3992	2204.6035	35.5213	0.1457	252.1283	2.0664	3.3369	3.5197	414.9086		
	2254.3999	212.7529	2.3998	2204.7534	36.5367	0.1474	254.1423	2.0469	3.2525	3.4034	416.6793		
	2254.55	212.7529	2.3974	2204.9033	34.7631	0.1514	255.7613	2.0189	3.1841	3.2501	418.6436		
	2254.7002	212.7529	2.3965	2205.0532	33.6133	0.1545	256.7333	1.9935	3.167	3.1878	420.6729		
	2254.8501	212.7529	2.3961	2205.2034	32.1589	0.1534	256.8695	1.9571	3.1776	3.1869	422.6407		
	2255	212.7529	2.3905	2205.3533	30.8277	0.1487	256.2488	1.955	3.2018	3.2329	424.0424		
	2255.1499	212.7529	2.3871	2205.5032	31.0317	0.1456	255.6371	2.0486	3.1986	3.2257	423.5539		
	2255.3	212.8018	2.4139	2205.6528	32.2565	0.1488	255.5417	2.2338	3.1928	3.1626	422.5176		
	2255.4502	212.952	2.4694	2205.8032	35.9372	0.1543	255.6725	2.4065	3.2639	3.1889	422.3077		
	2255.6001	213.2454	2.5055	2205.9534	43.6845	0.1537	255.0497	2.487	3.4177	3.4529	423.4458		
	2255.75	213.5992	2.4978	2206.1033	47.9048	0.1449	253.3503	2.5007	3.6533	3.8395	425.2373		
	2255.8999	213.8	2.4687	2206.2529	48.0317	0.1364	251.1957	2.4678	3.7589	4.0148	425.9817		
	2256.05	213.8375	2.4464	2206.4028	44.6355	0.1379	249.2645	2.3847	3.674	3.8913	424.854		
	2256.2002	213.8375	2.4371	2206.553	38.8539	0.1468	247.7706	2.2997	3.5727	3.6792	422.7969		
	2256.3501	213.8375	2.4315	2206.7031	36.3192	0.1559	247.2814	2.2547	3.5296	3.58	420.938		
	2256.5	213.8375	2.4268	2206.853	36.5977	0.1632	248.0127	2.2522	3.5551	3.6221	419.3308		
	2256.6499	213.8456	2.4273	2207.0027	37.1617	0.1671	249.6837	2.2876	3.6044	3.6883	418.7664		
	2256.8	213.8935	2.4325	2207.1526	38.133	0.1669	251.4612	2.3317	3.6145	3.7026	420.6825		
	2256.9502	213.9884	2.4364	2207.303	40.6679	0.1624	251.7763	2.3417	3.6081	3.743	423.9866		
	2257.1001	214.0457	2.4366	2207.4529	45.8231	0.1571	251.6928	2.3235	3.6296	3.874	427.0479		
	2257.25	213.9891	2.4419	2207.6025	53.3554	0.1576	251.6127	2.3634	3.6483	3.9645	431.1702		
	2257.3999	213.8849	2.464	2207.7524	62.5793	0.1659	250.6512	2.5015	3.5834	3.8068	434.7796		
	2257.55	213.8375	2.4985	2207.9026	73.3209	0.1834	248.9592	2.6542	3.3819	3.3477	438.0722		
	2257.7002	213.8375	2.5269	2208.0527	86.4976	0.2114	248.0045	2.7804	3.1244	2.8432	441.7264		
	2257.8501	213.8375	2.5404	2208.2026	100.2973	0.2422	249.1081	2.9364	2.9427	2.5723	447.9774		
	2258	213.8375	2.547	2208.3523	106.7365	0.2656	251.5338	3.1057	2.818	2.4193	460.0854		
	2258.1499	213.8375	2.5567	2208.5022	108.159	0.2734	258.9552	3.1956	2.7692	2.4247	476.8082		
	2258.3	213.8375	2.5692	2208.6526	104.7684	0.2658	270.7334	3.2197	2.8513	2.6244	492.8452		
	2258.4502	213.8375	2.5785	2208.8025	97.1568	0.2494	278.3943	3.2169	2.9764	2.862	507.3396		
	2258.6001	213.8375	2.5825	2208.9524	93.4541	0.225	283.4745	3.1435	3.175	3.191	516.8712		
	2258.75	213.8375	2.5845	2209.1023	88.1173	0.2001	284.1709	3.0134	3.4907	3.6457	514.1284		
	2258.8999	213.8375	2.5864	2209.2522	83.6445	0.1836	280.8746	2.8839	3.7874	4.061	512.5905		
	2259.05	213.8375	2.5873	2209.4023	79.5071	0.1765	275.6554	2.7813	3.9336	4.1912	506.3369		
	2259.2002	213.8375	2.5872	2209.5522	81.7338	0.1762	269.1126	2.7481	4.0434	4.1831	493.0077		
	2259.3501	213.8375	2.5909	2209.7021	83.2865	0.1752	262.9349	2.8028	4.1491	4.2039	480.9485		
	2259.5	213.8383	2.5979	2209.8523	81.4781	0.171	258.2015	2.846	4.3307	4.3834	462.9846		
	2259.6499	213.8486	2.6035	2210.002	79.0968	0.1614	253.973	2.8005	4.5123	4.6357	452.6112		
	2259.8	213.91	2.6024	2210.1521	72.1167	0.1499	251.0321	2.6997	4.5885	4.7855	443.8231		
	2259.9502	214.1196	2.5941	2210.302	66.1566	0.1424	248.6002	2.6834	4.6085	4.8452	437.525		
	2260.1001	214.5067	2.5856	2210.4519	64.3529	0.1415	245.4371	2.7682	4.4932	4.711	430.5889		
	2260.25	215.2733	2.5748	2210.6021	64.5967	0.1457	242.4863	2.8288	4.3164	4.4472	423.8433		
	2260.3999	216.1585	2.5557	2210.752	68.6173	0.1524	240.5247	2.8506	4.0737	4.0554	419.7845		
	2260.55	216.1065	2.5373	2210.9016	77.1389	0.1639	239.3341	2.983	3.8409	3.6503	414.373		
	2260.7002	215.1233	2.5445	2211.0518	81.4298	0.1801	241.2576	3.2742	3.7811	3.4896	415.3651		
	2260.8501	214.3387	2.5815	2211.2019	76.2175	0.1907	249.0978	3.5242	3.8552	3.615	425.3194		
	2261	214.1957	2.6066	2211.3525	64.455	0.1881	253.3633	3.5104	3.9284	3.9434	434.8701		
	2261.1499	214.1173	2.5815	2211.5042	57.3617	0.1731	257.7348	3.1961	3.8648	3.9926	441.8264		
	2261.3	213.7098	2.5259	2211.6538	56.5667	0.1619	263.5677	2.9117	3.658	3.7159	451.1101		
	2261.4502	213.4216	2.4863	2211.8042	59.3854	0.1637	268.5996	2.892	3.4875	3.3965	456.4309		
	2261.6001	213.9477	2.4809	2211.9541	67.2068	0.1788	275.4203	3.0957	3.4246	3.2907	458.4652		
	2261.75	215.1178	2.4943	2212.104	78.4101	0.2079	273.5478	3.5062	3.3865	3.2425	461.9961		
	2261.8999	215.4968	2.5027	2212.2539	95.0639	0.2412	274.9645	3.817	3.2246	3.0123	471.4716		
	2262.05	214.7968	2.4999	2212.4036	104.486	0.2769	276.6435	3.7883	2.9728	2.7249	482.2816		
	2262.2002	214.1801	2.4914	2212.554	106.2268	0.3028	280.0558	3.6466	2.8613	2.585	498.8492		
	2262.3501	214.052	2.4884	2212.7041	109.0199	0.3064	284.0065	3.6523	2.8125	2.5235	516.4746		
	2262.5	213.961	2.5095	2212.854	111.2373	0.2992	287.5592	3.8171	2.7209	2.3751	528.6418		
	2262.6499	213.8705	2.537	2213.0034	109.22	0.2903	290.683	3.8921	2.5687	2.167	538.5623		
	2262.8	213.8407	2.5606	2213.1536	107.2433	0.2778	293.8687	3.8705	2.4583	2.0761	549.0168		
	2262.9502	213.8375	2.5764	2213.3037	104.7834	0.2672	297.2342	3.818	2.4409	2.1136	558.3472		
	2263.1001	213.8375	2.5798	2213.4539	105.2005	0.269	297.208	3.8294	2.4641	2.1433	559.8696		
	2263.25	213.8375	2.573	2213.6035	109.748	0.2788	294.2783	3.9229	2.4758	2.1109	559.4959		
	2263.3999	213.8375	2.5609	2213.7534	110.1791	0.2855	290.8145	4.031	2.5311	2.1861	556.7002		
	2263.55	213.8375	2.5529	2213.9036	106.7448	0.2878	290.0731	4.0879	2.6832	2.4478	552.7427		
	2263.7002	213.8375	2.5494	2214.0537	96.3501	0.2873	292.3587	4.0539	3.0779	3.1839	550.5797		
	2263.8501	213.8375	2.5453	2214.2036	84.7236	0.2776	295.49	3.9438	3.0547	3.0565	551.4423		
	2264	213.8375	2.5485	2214.3533	74.4479	0.2482	298.3017	3.769	3.1637	3.244	552.7837		
	2264.1499	213.8375	2.5609	2214.5032	66.7083	0.2064	296.3931	3.5501	3.4315	3.7238	549.5956		
	2264.3	213.8459	2.5708	2214.6533	65.6712	0.1705	286.9554	3.3047	3.623	4.0165	536.0814		
	2264.4502	213.8928	2.5716	2214.8035	68.6022	0.1512	272.4208	3.0942	3.7253	4.1693	510.8828		
	2264.6001	213.9768	2.5661	2214.9531	71.5829	0.1499	260.8102	3.0287	3.7923	4.1711	480.7451		
