~VERSION	INFORMATION												
	VERS.	2	:	CWLS	LOG	ASCII	STANDARD	-	VERSION	2			
	WRAP.	NO	:	ONE	LINE	PER	DEPTH	STEP					
#													
~Well	Information	Section											
#MNEM	.UNIT	DATA	DESCRIPTION										
#-----	-----	--------	--------------										
	STRT	.M	410	:	START	DEPTH							
	STOP	.M	2720	:	END	DEPTH							
	STEP	.M	0.15	:	INCREMENT	DEPTH							
	NULL	.	-999.25	:	NULL	VALUE							
	COMP	.	:										
	WELL	.	XXXX	:	WELL	NAME							
	EKB	.M	0	:	KELLY	BUSHING	ELEVATION						
	EGL	.M	0	:	GROUND	LEVEL	ELEVATION						
	FLD	.	:										
	LOC	.	X	=	0	Y	=	0.0000:	WELL	LOCATION			
	PROV	.	:										
	SRVC	.	:										
	PROV	.	:										
	DATE	.	:										
	UWI	.	Unknown	:	UNIQUE	WELL	ID						
	API	.	:										
#													
~Curve	Information	Section											
#MNEM	.UNIT	Curve	#DESCRIPTION										
#-----	-----	----	--------------										
	DEPTH	.M	:	1	Name	=	Domain	Curve	-	Type	=	DEPTH	
	CALI	.mm	:	2	Name	=	Caliper_1	-	Type	=	Caliper		
	RHOB	.g/cc	:	3	Name	=	Density_3	-	Type	=	Density		
	UNKNOWN	.ft	:	4	Name	=	Depth_TVD	-	Type	=	Depth		
	GR	.API	:	5	Name	=	Gamma	Ray_1	-	Type	=	Gamma	Ray
	NPHI	.v/v	:	6	Name	=	Neutron	Porosity_1	-	Type	=	Neutron	Porosity
	DT	.us/m	:	7	Name	=	P-wave_1	-	Type	=	P-wave		
	UNKNOWN	.b/e	:	8	Name	=	Photoelectric_1	-	Type	=	Photoelectric		
	RES	.ohm-ft	:	9	Name	=	Resistivity	-	Type	=	Resistivity		
	RES	.ohm-m	:	10	Name	=	Resistivity_1	-	Type	=	Resistivity		
	SDT	.us/m	:	11	Name	=	S-wave_1	-	Type	=	S-wave		
~A	(ASCII	LOG	DATA)										
# ...
	2542.55	212.7529	2.6118	2492.9026	111.566	0.2389	238.6288	4.2142	3.5306	3.0945	405.7118		
	2542.7002	212.7529	2.6176	2493.0527	112.8316	0.2533	234.0836	4.248	3.6334	3.2929	402.1011		
	2542.8501	212.7529	2.6187	2493.2026	114.3547	0.2562	229.278	4.271	3.8042	3.5468	400.5633		
	2543	212.7529	2.6126	2493.3523	113.2716	0.2507	227.2714	4.2676	3.8981	3.6226	401.8793		
	2543.1501	212.7529	2.6034	2493.5024	111.5434	0.2454	228.2049	4.2354	3.8895	3.5381	408.1094		
	2543.3	212.7529	2.6037	2493.6526	111.2735	0.2449	234.0231	4.1954	3.9085	3.5266	418.9495		
	2543.4502	212.7617	2.6126	2493.8025	112.8372	0.2499	242.793	4.1475	3.978	3.5889	434.8123		
	2543.6001	212.8365	2.6215	2493.9524	115.9676	0.2628	253.7415	4.0662	4.0262	3.6085	454.8039		
	2543.75	213.0662	2.6255	2494.1021	119.2728	0.2778	264.6739	3.915	4.0481	3.5846	474.1823		
	2543.9001	213.4075	2.6165	2494.2524	124.2592	0.2781	271.2358	3.6878	4.0753	3.5545	489.8107		
	2544.05	213.6779	2.5962	2494.4023	128.8723	0.2618	273.2411	3.482	4.1428	3.5806	498.9586		
	2544.2002	213.8059	2.5803	2494.5522	127.7105	0.2484	272.3935	3.388	4.259	3.7344	502.0774		
	2544.3501	213.8375	2.5782	2494.7021	123.7147	0.2542	272.9154	3.4497	4.3479	3.8768	505.2446		
	2544.5	213.8691	2.584	2494.8521	120.5611	0.2758	276.3041	3.6722	4.3599	3.8639	511.5006		
	2544.6501	214.092	2.587	2495.0022	122.9313	0.2956	278.5773	3.9178	4.3813	3.7993	514.2003		
	2544.8	214.633	2.5815	2495.1521	132.3053	0.3085	278.9625	4.1354	4.4739	3.8623	516.9573		
	2544.9502	215.0598	2.5693	2495.302	131.2659	0.3184	278.4123	4.3073	4.5732	4.0124	517.625		
	2545.1001	214.826	2.5552	2495.4519	126.0712	0.3272	277.6609	4.4164	4.7265	4.216	516.1671		
	2545.25	214.1355	2.5356	2495.6021	116.7056	0.3308	276.9576	4.534	4.973	4.5225	514.0527		
	2545.4001	213.981	2.5139	2495.752	110.1539	0.3237	278.1757	4.5761	5.1722	4.8095	512.3995		
	2545.55	213.9326	2.4981	2495.9019	107.0074	0.3124	281.5728	4.5231	5.3006	5.0727	519.1839		
	2545.7002	213.865	2.4983	2496.0518	102.3923	0.3052	288.8154	4.4385	5.5392	5.2917	532.3415		
	2545.8501	213.8398	2.5167	2496.2019	103.3017	0.3003	298.8834	4.3535	5.5471	5.2085	546.0508		
	2546	213.8375	2.5294	2496.3518	99.2721	0.289	307.3356	4.2701	5.4881	5.149	562.0504		
	2546.1501	213.8375	2.5333	2496.502	98.6091	0.2716	311.543	4.212	5.4703	5.1555	576.1355		
	2546.3	213.8347	2.5479	2496.6514	97.6881	0.2597	313.3528	4.2365	5.4262	5.0549	581.7277		
	2546.4502	213.7669	2.5753	2496.8018	98.6556	0.2583	313.3407	4.3505	5.3504	4.911	582.9577		
	2546.6001	213.6053	2.5946	2496.9517	95.7403	0.2589	311.23	4.403	5.3994	5.0149	579.8793		
	2546.75	213.5099	2.5947	2497.1023	94.6536	0.2551	307.2443	4.3555	5.4875	5.2074	573.0989		
	2546.9001	213.616	2.5891	2497.2539	90.6664	0.2483	302.4631	4.3157	5.5084	5.314	563.1059		
	2547.05	213.7831	2.5905	2497.4038	91.4173	0.2361	296.7773	4.251	5.3133	5.0529	551.1736		
	2547.2002	213.8356	2.5988	2497.554	94.3139	0.2204	289.9631	4.1658	5.0738	4.5495	537.6424		
	2547.3501	213.8375	2.6093	2497.7039	100.2691	0.2098	279.0407	4.1183	5.1012	4.5203	514.5732		
	2547.5	213.8375	2.6202	2497.8538	100.7716	0.2078	273.7707	4.0764	5.1371	4.568	503.5721		
	2547.6501	213.8375	2.6275	2498.0037	99.9643	0.2107	270.3748	4.0633	5.2331	4.6493	490.8571		
	2547.8	213.8375	2.6264	2498.1538	98.8684	0.2089	267.032	4.0798	5.3249	4.7287	478.1202		
	2547.9502	213.7926	2.621	2498.3037	96.4066	0.201	263.4646	4.093	5.3204	4.7381	470.3218		
	2548.1001	213.672	2.6198	2498.4539	96.3658	0.198	260.1489	4.0684	5.3029	4.7481	465.9733		
	2548.25	213.5854	2.6252	2498.6038	99.4036	0.2106	255.2485	4.0098	5.383	4.8565	459.7955		
	2548.4001	213.6792	2.6309	2498.7534	101.3702	0.2347	252.4481	4.0057	5.4923	5.0232	451.9091		
	2548.55	213.7961	2.6242	2498.9036	100.0992	0.2458	249.9574	4.0542	5.7659	5.3717	445.8272		
	2548.7002	213.8335	2.6045	2499.0535	93.5796	0.2456	247.5766	4.074	6.0619	5.6811	438.728		
	2548.8501	213.8375	2.5865	2499.2036	85.6515	0.241	245.3598	4.0726	6.243	5.8899	434.1312		
	2549	213.8375	2.5787	2499.3533	81.4452	0.2329	244.605	4.0473	6.3616	6.008	430.4953		
	2549.1501	213.8375	2.5811	2499.5034	81.7536	0.2221	244.963	3.9753	6.4193	6.0541	427.2523		
	2549.3	213.8375	2.5924	2499.6533	83.62	0.2152	246.8164	3.9194	6.4671	6.0915	429.702		
	2549.4502	213.8375	2.6023	2499.8035	83.9271	0.2144	248.7465	3.9084	6.5252	6.1305	433.6295		
	2549.6001	213.8375	2.6031	2499.9534	84.4482	0.2189	252.471	3.8864	6.6112	6.2336	438.5629		
	2549.75	213.8375	2.6	2500.1033	82.7915	0.2254	256.4362	3.8501	6.1327	5.8161	446.729		
	2549.9001	213.8375	2.5964	2500.2532	82.4171	0.2273	259.3923	3.8545	5.4103	5.167	454.7099		
	2550.05	213.8375	2.5922	2500.4033	80.2726	0.2171	259.9989	3.8943	5.4771	5.1943	458.9758		
	2550.2002	213.8375	2.5924	2500.5532	77.6809	0.1961	258.9996	3.8739	5.9329	5.5551	462.1048		
	2550.3501	213.8375	2.5981	2500.7031	77.246	0.1777	258.4004	3.7633	6.3882	5.9155	460.8036		
	2550.5	213.8375	2.6026	2500.853	78.9082	0.1684	258.9928	3.655	6.5141	6.0149	456.3058		
	2550.6501	213.8375	2.6043	2501.0029	79.5287	0.1653	260.4152	3.6356	6.5211	6.0756	453.2058		
	2550.8	213.8375	2.611	2501.1531	79.6086	0.1638	261.2769	3.7013	6.5633	6.1709	451.3098		
	2550.9502	213.8375	2.6259	2501.303	86.1783	0.1613	260.3839	3.7884	6.6418	6.3025	449.0422		
	2551.1001	213.8236	2.6395	2501.4529	91.0631	0.1574	257.6552	3.8634	6.7263	6.4274	445.6543		
	2551.25	213.7352	2.6415	2501.6028	91.0207	0.1516	253.7189	3.9135	6.7873	6.5332	439.6329		
	2551.4001	213.5377	2.6338	2501.7529	86.3832	0.1424	249.7132	3.8648	6.8576	6.7138	432.8839		
	2551.55	213.3423	2.6258	2501.9028	80.7001	0.135	245.9568	3.6998	6.9304	6.8921	426.6161		
	2551.7002	213.3275	2.6201	2502.0527	79.0949	0.1382	242.0416	3.5742	6.9277	6.8778	418.9718		
	2551.8501	213.3929	2.6137	2502.2029	78.1327	0.1479	239.0089	3.5544	6.7873	6.6403	411.6371		
	2552	213.2856	2.6072	2502.3528	76.5168	0.1552	237.598	3.5549	6.5745	6.3375	406.4107		
	2552.1501	213.0587	2.6058	2502.5027	76.0639	0.1627	236.404	3.5756	6.4132	6.1921	402.7104		
	2552.3	212.982	2.61	2502.6526	78.1117	0.1755	234.8067	3.6596	6.3097	6.1308	399.4883		
	2552.4502	213.1787	2.613	2502.8027	80.9465	0.1918	233.7396	3.7616	6.1164	5.8577	397.1628		
	2552.6001	213.5063	2.6095	2502.9526	84.3956	0.2049	233.5065	3.8126	5.81	5.4035	396.0382		
	2552.75	213.7497	2.6022	2503.1025	89.2689	0.2073	233.3777	3.8177	5.6032	5.0182	396.184		
	2552.9001	213.8293	2.5966	2503.2524	92.1919	0.195	233.3707	3.7907	5.6193	4.9707	397.3192		
	2553.05	213.8375	2.5948	2503.4023	90.5874	0.1739	234.4027	3.7265	5.8188	5.238	398.2324		
	2553.2002	213.8375	2.5934	2503.5525	85.4709	0.1529	236.7127	3.6324	6.1553	5.7726	402.7281		
	2553.3501	213.8352	2.5925	2503.7024	78.4176	0.1368	239.415	3.5684	6.4313	6.2674	410.2265		
	2553.5	213.8069	2.5952	2503.8523	72.5864	0.1261	244.2892	3.5761	6.6705	6.6759	419.6646		
	2553.6501	213.659	2.6016	2504.0022	68.4651	0.1232	249.3983	3.6066	6.8139	6.9711	430.5902		
	2553.8	213.3297	2.6079	2504.1523	64.7475	0.1301	251.7303	3.6276	6.834	7.0207	432.6396		
	2553.9502	213.1228	2.6093	2504.3022	65.0127	0.1381	252.7614	3.668	6.749	6.858	431.0171		
	2554.1001	213.3233	2.6087	2504.4521	67.8104	0.1411	253.7106	3.744	6.6017	6.6093	427.1473		
	2554.25	213.5679	2.6122	2504.6018	68.8665	0.1436	248.634	3.8132	6.5475	6.4481	417.3071		
	2554.4001	213.4313	2.6124	2504.7522	66.7009	0.1539	238.3004	3.8291	6.4451	6.2261	402.5286		
	2554.55	213.121	2.5998	2504.9021	67.3002	0.1738	233.4328	3.8302	6.306	5.899	393.009		
	2554.7002	213.0334	2.5828	2505.052	73.2711	0.2	230.7004	3.885	6.0911	5.5221	387.6019		
	2554.8501	213.2781	2.5721	2505.2019	83.7375	0.2311	229.0498	3.9928	5.8851	5.2052	383.4373		
	2555	213.4827	2.5688	2505.3516	90.9069	0.2462	228.7909	4.0314	5.7721	5.0681	385.9803		
	2555.1501	213.6231	2.5589	2505.502	97.439	0.2424	227.8484	3.9893	5.7117	5.0189	388.8646		
	2555.3	213.7614	2.5458	2505.6519	99.6609	0.218	228.5538	3.896	5.7454	5.1618	392.3236		
	2555.4502	213.862	2.5423	2505.802	94.1236	0.1881	234.6214	3.7769	5.9863	5.5919	400.2408		
	2555.6001	213.9401	2.5506	2505.9517	84.8198	0.179	238.9173	3.6722	6.3134	6.1673	414.9394		
